[{"latitude":25.29,"longitude":53.08,"name":"Abu al Bukhoosh","country":"AE","refcode":"ABU"},{"latitude":25.52,"longitude":55.01,"name":"Abu Musa","country":"AE","refcode":"AMU"},{"latitude":25.32,"longitude":55.33,"name":"Ahmed Bin Rashid Port","country":"AE","refcode":"ARP"},{"latitude":25.43,"longitude":55.48,"name":"Al Jazeera Port","country":"AE","refcode":"JAZ"},{"latitude":26.02,"longitude":56.03,"name":"Al Jeer Port","country":"AE","refcode":"AJP"},{"latitude":24.07,"longitude":52.44,"name":"Ar Ruways","country":"AE","refcode":"RUW"},{"latitude":25.37,"longitude":56.16,"name":"Dibba","country":"AE","refcode":"DBP"},{"latitude":25.15,"longitude":55.15,"name":"Free Port","country":"AE","refcode":"FRP"},{"latitude":25.18,"longitude":55.19,"name":"Hamriya Free Zone Port","country":"AE","refcode":"HZP"},{"latitude":24.54,"longitude":54.54,"name":"Hassyan","country":"AE","refcode":"HSN"},{"latitude":25,"longitude":55.03,"name":"Jebel Ali Free Zone","country":"AE","refcode":"QWE"},{"latitude":25.04,"longitude":56.21,"name":"Kalba","country":"AE","refcode":"KLB"},{"latitude":25.2,"longitude":56.21,"name":"Khor al Fakkan","country":"AE","refcode":"KLF"},{"latitude":25.21,"longitude":55.22,"name":"Mina Khalid","country":"AE","refcode":"MKH"},{"latitude":24.5,"longitude":54.4,"name":"Mina Khalifa/Abu Dhabi","country":"AE","refcode":"KHL"},{"latitude":25.16,"longitude":55.17,"name":"Mina Rashid Port","country":"AE","refcode":"MRP"},{"latitude":24.31,"longitude":54.22,"name":"Mina Zayed/Abu Dhabi","country":"AE","refcode":"MZD"},{"latitude":24.23,"longitude":54.29,"name":"Mussafah","country":"AE","refcode":"AMF"},{"latitude":25.49,"longitude":55.57,"name":"Rak Khor Port","country":"AE","refcode":"RKP"},{"latitude":25.57,"longitude":56.03,"name":"Rak Maritime City","country":"AE","refcode":"RMC"},{"latitude":24.06,"longitude":52.43,"name":"Ruwais Port","country":"AE","refcode":"RWP"},{"latitude":24.19,"longitude":52.36,"name":"Yas Island","country":"AE","refcode":"YAS"},{"latitude":24.53,"longitude":53.04,"name":"Zirku Island","country":"AE","refcode":"ZUR"},{"latitude":36.39,"longitude":66.59,"name":"Dehdadi","country":"AF","refcode":"DHD"},{"latitude":32.06,"longitude":66.53,"name":"Qalat","country":"AF","refcode":"QLT"},{"latitude":34.53,"longitude":71.55,"name":"Torkham","country":"AF","refcode":"RKH"},{"latitude":17.01,"longitude":-61.47,"name":"Falmouth","country":"AG","refcode":"FAM"},{"latitude":17.05,"longitude":-61.45,"name":"Parham","country":"AG","refcode":"PHM"},{"latitude":18.1,"longitude":-63.08,"name":"Meads Bay Beach","country":"AI","refcode":"MBB"},{"latitude":41.22,"longitude":19.25,"name":"Romano Port","country":"AL","refcode":"ROM"},{"latitude":39.53,"longitude":20,"name":"Sarande","country":"AL","refcode":"SAR"},{"latitude":41.48,"longitude":19.34,"name":"Shengjin","country":"AL","refcode":"SHG"},{"latitude":40.28,"longitude":19.29,"name":"Vlore","country":"AL","refcode":"VOA"},{"latitude":-16.36,"longitude":11.44,"name":"Baia dos Tigres","country":"AO","refcode":"BDT"},{"latitude":-7.32,"longitude":12.1,"name":"Gimboa","country":"AO","refcode":"GIM"},{"latitude":-7.38,"longitude":11.41,"name":"Girassol Terminal","country":"AO","refcode":"GIR"},{"latitude":-7.5,"longitude":12.07,"name":"Greater Plutonio","country":"AO","refcode":"GPO"},{"latitude":-5.51,"longitude":13.26,"name":"Noqui","country":"AO","refcode":"NQI"},{"latitude":-73.03,"longitude":-13.25,"name":"Aboa","country":"AQ","refcode":"ABA"},{"latitude":-62.09,"longitude":-58.28,"name":"Arctowski","country":"AQ","refcode":"ARC"},{"latitude":-62.11,"longitude":-58.54,"name":"Artigas","country":"AQ","refcode":"ART"},{"latitude":-62.3,"longitude":-59.41,"name":"Arturo Prat","country":"AQ","refcode":"APT"},{"latitude":-62.11,"longitude":-58.57,"name":"Bellingshausen","country":"AQ","refcode":"BHN"},{"latitude":-66.17,"longitude":110.31,"name":"Casey Station","country":"AQ","refcode":"CAS"},{"latitude":-62.05,"longitude":-58.23,"name":"Comandante Ferraz","country":"AQ","refcode":"CFZ"},{"latitude":-68.34,"longitude":77.58,"name":"Davis Station","country":"AQ","refcode":"DAV"},{"latitude":-66.39,"longitude":140,"name":"Dumont d'Urville Station","country":"AQ","refcode":"DDU"},{"latitude":-62.12,"longitude":-58.57,"name":"Escudero","country":"AQ","refcode":"ESC"},{"latitude":-63.23,"longitude":-56.59,"name":"Esperanza","country":"AQ","refcode":"ESP"},{"latitude":-63.19,"longitude":-57.54,"name":"General Bernardo O'higgins","country":"AQ","refcode":"OHG"},{"latitude":-62.13,"longitude":-58.58,"name":"Great Wall","country":"AQ","refcode":"GWL"},{"latitude":-75.34,"longitude":-26.32,"name":"Halley","country":"AQ","refcode":"HLY"},{"latitude":-74.36,"longitude":164.12,"name":"Jang Bogo Station","country":"AQ","refcode":"JBS"},{"latitude":-62.39,"longitude":-60.23,"name":"Juan Carlos Primero","country":"AQ","refcode":"JCP"},{"latitude":-62.14,"longitude":-58.39,"name":"Jubany","country":"AQ","refcode":"JUB"},{"latitude":-62.13,"longitude":-58.47,"name":"King Sejong","country":"AQ","refcode":"KSG"},{"latitude":-75,"longitude":0.04,"name":"Kohnen","country":"AQ","refcode":"KHN"},{"latitude":-69.23,"longitude":76.23,"name":"Law Base","country":"AQ","refcode":"LAW"},{"latitude":-64.14,"longitude":-56.39,"name":"Marambio","country":"AQ","refcode":"MRB"},{"latitude":-74.41,"longitude":164.07,"name":"Mario Zucchelli","country":"AQ","refcode":"MZU"},{"latitude":-67.36,"longitude":62.52,"name":"Mawson Station","country":"AQ","refcode":"MAW"},{"latitude":-77.5,"longitude":166.4,"name":"McMurdo","country":"AQ","refcode":"MCM"},{"latitude":-66.33,"longitude":93,"name":"Mirny","country":"AQ","refcode":"MIR"},{"latitude":-60.44,"longitude":-44.44,"name":"Orcadas","country":"AQ","refcode":"ORC"},{"latitude":-64.46,"longitude":-64.03,"name":"Palmer","country":"AQ","refcode":"PLM"},{"latitude":-63,"longitude":-60.34,"name":"Port Foster","country":"AQ","refcode":"PFS"},{"latitude":-69.24,"longitude":76.23,"name":"Progress","country":"AQ","refcode":"PRO"},{"latitude":-67.34,"longitude":-68.07,"name":"Rothera","country":"AQ","refcode":"ROT"},{"latitude":-68.07,"longitude":-67.06,"name":"San Martin","country":"AQ","refcode":"SMT"},{"latitude":-60.43,"longitude":-45.36,"name":"Signy","country":"AQ","refcode":"SGN"},{"latitude":-69,"longitude":39.35,"name":"Syowa","country":"AQ","refcode":"SYW"},{"latitude":-65.14,"longitude":-64.15,"name":"Vernadsky","country":"AQ","refcode":"VKY"},{"latitude":-73.03,"longitude":-13.25,"name":"Wasa","country":"AQ","refcode":"WSA"},{"latitude":-69.22,"longitude":76.23,"name":"Zhongshan","country":"AQ","refcode":"ZGN"},{"latitude":-33.07,"longitude":-68.53,"name":"Agrelo","country":"AR","refcode":"GEO"},{"latitude":-34.05,"longitude":-60.07,"name":"Arrecifes","country":"AR","refcode":"ACF"},{"latitude":-29.1,"longitude":-67.3,"name":"Chilecito","country":"AR","refcode":"CHO"},{"latitude":-31.29,"longitude":-68.32,"name":"Chimbas","country":"AR","refcode":"CBS"},{"latitude":-32.58,"longitude":-68.45,"name":"Coquimbito","country":"AR","refcode":"IQO"},{"latitude":-34.39,"longitude":-58.2,"name":"Dock Sur","country":"AR","refcode":"DSU"},{"latitude":-33.21,"longitude":-60.08,"name":"Ingeniero Buitrago","country":"AR","refcode":"BUI"},{"latitude":-38.47,"longitude":-62.16,"name":"Ingeniero White/Bahia Blanca","country":"AR","refcode":"INW"},{"latitude":-33.28,"longitude":-67.33,"name":"La Paz","country":"AR","refcode":"LPM"},{"latitude":-34.01,"longitude":-59.07,"name":"Las Palmas","country":"AR","refcode":"LPS"},{"latitude":-28.12,"longitude":-65.08,"name":"Lavalle","country":"AR","refcode":"LAV"},{"latitude":-34.34,"longitude":-59.06,"name":"Lujan","country":"AR","refcode":"LUJ"},{"latitude":-33.03,"longitude":-68.52,"name":"Lujan de Cuyo","country":"AR","refcode":"LCU"},{"latitude":-32.57,"longitude":-68.49,"name":"Luzuriaga","country":"AR","refcode":"LZG"},{"latitude":-25.25,"longitude":-66.19,"name":"Molinos","country":"AR","refcode":"NOS"},{"latitude":-36.53,"longitude":-60.2,"name":"Olavarria","country":"AR","refcode":"OVI"},{"latitude":-34.36,"longitude":-58.31,"name":"Pablo Podesta","country":"AR","refcode":"PP9"},{"latitude":-41.42,"longitude":-65,"name":"Punta Colorada","country":"AR","refcode":"PCO"},{"latitude":-32.39,"longitude":-60.43,"name":"Quebracho/San Lorenzo","country":"AR","refcode":"QBR"},{"latitude":-43.18,"longitude":-65.06,"name":"Rawson","country":"AR","refcode":"RWO"},{"latitude":-33.11,"longitude":-68.28,"name":"Rivadavia","country":"AR","refcode":"RIV"},{"latitude":-25.48,"longitude":-64.58,"name":"Rosario de la Frontera","country":"AR","refcode":"RFO"},{"latitude":-33.46,"longitude":-69.02,"name":"San Carlos","country":"AR","refcode":"SCA"},{"latitude":-33.04,"longitude":-68.28,"name":"San Martin","country":"AR","refcode":"SMR"},{"latitude":-33.41,"longitude":-59.1,"name":"San Pedro","country":"AR","refcode":"SPD"},{"latitude":-24.11,"longitude":-65.18,"name":"San Salvador de Jujuy","country":"AR","refcode":"SSJ"},{"latitude":-33.15,"longitude":-68.09,"name":"Santa Rosa","country":"AR","refcode":"STA"},{"latitude":-33.34,"longitude":-69.01,"name":"Tunuyan","country":"AR","refcode":"TUN"},{"latitude":-34.31,"longitude":-58.29,"name":"Vicente Lopez","country":"AR","refcode":"VLO"},{"latitude":48.23,"longitude":15.51,"name":"Altenworth","country":"AT","refcode":"AWH"},{"latitude":48.13,"longitude":14.24,"name":"Asten","country":"AT","refcode":"ATN"},{"latitude":48.41,"longitude":16.52,"name":"Bernhardsthal","country":"AT","refcode":"SXA"},{"latitude":47.25,"longitude":13.13,"name":"Bischofshofen","country":"AT","refcode":"BFS"},{"latitude":47.59,"longitude":14.45,"name":"Bohlerwenk","country":"AT","refcode":"BOE"},{"latitude":47.3,"longitude":9.46,"name":"Bregenz","country":"AT","refcode":"BRZ"},{"latitude":48.18,"longitude":16.34,"name":"Deutsch Wagram","country":"AT","refcode":"DWA"},{"latitude":47.36,"longitude":16.38,"name":"Deutschkreutz","country":"AT","refcode":"DKZ"},{"latitude":48.36,"longitude":16.49,"name":"Dobermannsdorf","country":"AT","refcode":"ERR"},{"latitude":47.54,"longitude":16.38,"name":"Donnerskirchen","country":"AT","refcode":"NNN"},{"latitude":48.27,"longitude":15.34,"name":"Dross","country":"AT","refcode":"DRO"},{"latitude":48.23,"longitude":15.31,"name":"Durnstein","country":"AT","refcode":"DUE"},{"latitude":47.57,"longitude":16.24,"name":"Ebreichsdorf","country":"AT","refcode":"EBR"},{"latitude":46.41,"longitude":15.5,"name":"Eibiswald","country":"AT","refcode":"EWD"},{"latitude":48.27,"longitude":15.45,"name":"Engabrunn","country":"AT","refcode":"BRI"},{"latitude":48.27,"longitude":15.53,"name":"Engelmannsbrunn","country":"AT","refcode":"ERO"},{"latitude":48.21,"longitude":14.27,"name":"Engerwitzdorf","country":"AT","refcode":"DFC"},{"latitude":47.4,"longitude":12.1,"name":"Erl","country":"AT","refcode":"ERL"},{"latitude":48.2,"longitude":15.54,"name":"Erpersdorf","country":"AT","refcode":"EPD"},{"latitude":47.46,"longitude":13.13,"name":"Faistenau","country":"AT","refcode":"FSU"},{"latitude":48.43,"longitude":13.35,"name":"Falkenstein","country":"AT","refcode":"LKN"},{"latitude":46.56,"longitude":16,"name":"Fehring","country":"AT","refcode":"FHR"},{"latitude":47.09,"longitude":11.21,"name":"Fulpmes","country":"AT","refcode":"FPS"},{"latitude":46.43,"longitude":15.33,"name":"Gamlitz","country":"AT","refcode":"GA6"},{"latitude":47.55,"longitude":13.48,"name":"Gmunden","country":"AT","refcode":"GDN"},{"latitude":48.2,"longitude":16.14,"name":"Greifenstein","country":"AT","refcode":"GFS"},{"latitude":48.13,"longitude":14.5,"name":"Grein","country":"AT","refcode":"GRN"},{"latitude":48.24,"longitude":16.37,"name":"Gross-Schweinbarth","country":"AT","refcode":"SWH"},{"latitude":47.52,"longitude":15.53,"name":"Gutenstein","country":"AT","refcode":"GSN"},{"latitude":48.27,"longitude":15.43,"name":"Hadersdorf","country":"AT","refcode":"DOF"},{"latitude":48.27,"longitude":15.43,"name":"Hadersdorf-Kammern","country":"AT","refcode":"HKM"},{"latitude":48.02,"longitude":15.46,"name":"Hainfeld","country":"AT","refcode":"LTX"},{"latitude":48.42,"longitude":16.04,"name":"Haugsdorf","country":"AT","refcode":"GHH"},{"latitude":48.23,"longitude":16.06,"name":"Hausleiten","country":"AT","refcode":"ITN"},{"latitude":46.59,"longitude":15.3,"name":"Hausmannstatten","country":"AT","refcode":"TEN"},{"latitude":48.3,"longitude":16.34,"name":"Hobersbrunn","country":"AT","refcode":"BNN"},{"latitude":48.04,"longitude":16.47,"name":"Hoflein","country":"AT","refcode":"EIN"},{"latitude":48.19,"longitude":15.4,"name":"Inzersdorf an der Traisen","country":"AT","refcode":"ZIN"},{"latitude":48.47,"longitude":15.34,"name":"Japons","country":"AT","refcode":"JPS"},{"latitude":48.42,"longitude":16.03,"name":"Jetzelsdorf","country":"AT","refcode":"ZLF"},{"latitude":47.07,"longitude":15.21,"name":"Judendorf","country":"AT","refcode":"JDD"},{"latitude":47.24,"longitude":14.54,"name":"Kammern im Liesingtal","country":"AT","refcode":"KAM"},{"latitude":47.15,"longitude":11.16,"name":"Kematen in Tirol","country":"AT","refcode":"KTT"},{"latitude":48.39,"longitude":16.39,"name":"Ketzelsdorf","country":"AT","refcode":"ZRF"},{"latitude":47.12,"longitude":14.49,"name":"Knittelfeld","country":"AT","refcode":"KFD"},{"latitude":48.13,"longitude":15.1,"name":"Krummnussbaum","country":"AT","refcode":"KMB"},{"latitude":48.22,"longitude":-154,"name":"Krustetten","country":"AT","refcode":"GHJ"},{"latitude":48.18,"longitude":16.21,"name":"Langenzersdorf","country":"AT","refcode":"LZD"},{"latitude":48.29,"longitude":13.53,"name":"Lembach","country":"AT","refcode":"LUA"},{"latitude":46.4,"longitude":15.28,"name":"Leutschach","country":"AT","refcode":"LTS"},{"latitude":48.35,"longitude":15.52,"name":"Limberg","country":"AT","refcode":"IEG"},{"latitude":48.05,"longitude":13.4,"name":"Manning","country":"AT","refcode":"MAN"},{"latitude":48.13,"longitude":15.09,"name":"Marbach an der Donau","country":"AT","refcode":"MAB"},{"latitude":47.14,"longitude":16.05,"name":"Markt Allhau","country":"AT","refcode":"MKA"},{"latitude":48.11,"longitude":14.42,"name":"Mitterkirchen","country":"AT","refcode":"MKC"},{"latitude":47.45,"longitude":16.4,"name":"Morbisch am See","country":"AT","refcode":"MBS"},{"latitude":47.5,"longitude":16.06,"name":"Muthmannsdorf","country":"AT","refcode":"NT9"},{"latitude":48.29,"longitude":15.53,"name":"Neudegg","country":"AT","refcode":"NGG"},{"latitude":48.29,"longitude":13.59,"name":"Neufelden","country":"AT","refcode":"NFN"},{"latitude":48.03,"longitude":14.51,"name":"Neuhofen an der Ybbs","country":"AT","refcode":"NAD"},{"latitude":47.56,"longitude":17.04,"name":"Nickelsdorf","country":"AT","refcode":"ND2"},{"latitude":47.11,"longitude":9.48,"name":"Nuziders","country":"AT","refcode":"NUZ"},{"latitude":48.06,"longitude":14.48,"name":"Oehling","country":"AT","refcode":"XAE"},{"latitude":47.5,"longitude":16.4,"name":"Oggau","country":"AT","refcode":"GGU"},{"latitude":48.2,"longitude":14.11,"name":"Ottensheim","country":"AT","refcode":"OSH"},{"latitude":46.42,"longitude":13.38,"name":"Paternion","country":"AT","refcode":"ATK"},{"latitude":48.11,"longitude":15.04,"name":"Persenbeug","country":"AT","refcode":"PBU"},{"latitude":48.08,"longitude":15.09,"name":"Petzenkirchen","country":"AT","refcode":"PET"},{"latitude":47.51,"longitude":16.5,"name":"Podersdorf am See","country":"AT","refcode":"PAS"},{"latitude":48.12,"longitude":15.31,"name":"Prinzersdorf","country":"AT","refcode":"7PZ"},{"latitude":47.23,"longitude":13.27,"name":"Radstadt","country":"AT","refcode":"RAD"},{"latitude":48.14,"longitude":13,"name":"Ranshofen","country":"AT","refcode":"RHN"},{"latitude":47.17,"longitude":11.03,"name":"Rietz","country":"AT","refcode":"ETZ"},{"latitude":48.04,"longitude":16.51,"name":"Rohrau","country":"AT","refcode":"RHR"},{"latitude":48.24,"longitude":15.3,"name":"Ruhrsdorf","country":"AT","refcode":"RRF"},{"latitude":48.29,"longitude":13.45,"name":"Sankt Aegidi","country":"AT","refcode":"SAK"},{"latitude":47.59,"longitude":12.53,"name":"Sankt Georgen bei Salzburg","country":"AT","refcode":"SGS"},{"latitude":47.03,"longitude":15.45,"name":"Sankt Margarethen an der Raab","country":"AT","refcode":"SMR"},{"latitude":46.38,"longitude":14.23,"name":"Sankt Margrethen","country":"AT","refcode":"SK3"},{"latitude":46.55,"longitude":15.15,"name":"Sankt Stefan ob Stainz","country":"AT","refcode":"FBZ"},{"latitude":48.36,"longitude":16.46,"name":"Sankt Ulrich","country":"AT","refcode":"SUH"},{"latitude":48.28,"longitude":14.09,"name":"Sankt Veit im Muhlkreis","country":"AT","refcode":"SVM"},{"latitude":48.23,"longitude":14.44,"name":"Schonau im Muhlkreis","country":"AT","refcode":"SMK"},{"latitude":48.42,"longitude":15.54,"name":"Schrattenthal","country":"AT","refcode":"TTL"},{"latitude":47.51,"longitude":16.37,"name":"Schutzen am Gebirge","country":"AT","refcode":"SAG"},{"latitude":48.26,"longitude":15.33,"name":"Senftenberg","country":"AT","refcode":"SFT"},{"latitude":48.27,"longitude":16.44,"name":"Spannberg","country":"AT","refcode":"SPG"},{"latitude":48.22,"longitude":15.25,"name":"Spitz","country":"AT","refcode":"SPZ"},{"latitude":47.36,"longitude":13.38,"name":"Steeg","country":"AT","refcode":"STD"},{"latitude":47.29,"longitude":16.29,"name":"Steinberg","country":"AT","refcode":"SSS"},{"latitude":48.07,"longitude":14.01,"name":"Steinhaus","country":"AT","refcode":"SUS"},{"latitude":46.48,"longitude":15.52,"name":"Straden","country":"AT","refcode":"ST6"},{"latitude":47.08,"longitude":13.48,"name":"Tamsweg","country":"AT","refcode":"TAM"},{"latitude":48.25,"longitude":13.32,"name":"Taufkirchen an der Pram","country":"AT","refcode":"TKP"},{"latitude":47.19,"longitude":11.39,"name":"Terfens","country":"AT","refcode":"TFS"},{"latitude":48.23,"longitude":15.41,"name":"Theiss","country":"AT","refcode":"THS"},{"latitude":48.2,"longitude":15.44,"name":"Traismauer","country":"AT","refcode":"TMR"},{"latitude":46.37,"longitude":14.03,"name":"Velden","country":"AT","refcode":"VEL"},{"latitude":47.28,"longitude":15,"name":"Vordernberg","country":"AT","refcode":"ERM"},{"latitude":48.1,"longitude":14.43,"name":"Wallsee","country":"AT","refcode":"WSE"},{"latitude":48.06,"longitude":15.31,"name":"Weinburg","country":"AT","refcode":"WEU"},{"latitude":46.53,"longitude":15.28,"name":"Weitendorf","country":"AT","refcode":"WDF"},{"latitude":47.48,"longitude":16.3,"name":"Wulkaprodersdorf","country":"AT","refcode":"WUL"},{"latitude":48.29,"longitude":15.41,"name":"Zobing","country":"AT","refcode":"ZNG"},{"latitude":-21.2,"longitude":115.1,"name":"Airlie Terminal","country":"AU","refcode":"AIR"},{"latitude":-35.01,"longitude":138.44,"name":"Aldgate","country":"AU","refcode":"ALD"},{"latitude":-12.55,"longitude":141.37,"name":"Amrun","country":"AU","refcode":"AMR"},{"latitude":-33.53,"longitude":151.1,"name":"Annandale","country":"AU","refcode":"ANN"},{"latitude":-32.01,"longitude":115.5,"name":"Applecross","country":"AU","refcode":"APP"},{"latitude":-32.09,"longitude":116,"name":"Armadale","country":"AU","refcode":"AUA"},{"latitude":-33.47,"longitude":150.52,"name":"Arndell Park","country":"AU","refcode":"DLP"},{"latitude":-34.56,"longitude":138.44,"name":"Ashton","country":"AU","refcode":"ASH"},{"latitude":-38.02,"longitude":145.06,"name":"Aspendale","country":"AU","refcode":"P6D"},{"latitude":-32.01,"longitude":115.47,"name":"Attadale","country":"AU","refcode":"ATT"},{"latitude":-34.19,"longitude":115.1,"name":"Augusta","country":"AU","refcode":"AGS"},{"latitude":-33.17,"longitude":115.43,"name":"Australind","country":"AU","refcode":"ALI"},{"latitude":-32.24,"longitude":150.29,"name":"Baerami","country":"AU","refcode":"BAE"},{"latitude":-34.59,"longitude":138.5,"name":"Balhannah","country":"AU","refcode":"BAA"},{"latitude":-38.22,"longitude":145.08,"name":"Balnarring","country":"AU","refcode":"BAL"},{"latitude":-38.03,"longitude":144.1,"name":"Bannockburn","country":"AU","refcode":"BNN"},{"latitude":-34.16,"longitude":146.06,"name":"Beelbangera","country":"AU","refcode":"BBL"},{"latitude":-33.44,"longitude":151.13,"name":"Belrose","country":"AU","refcode":"BE9"},{"latitude":-35.18,"longitude":138.56,"name":"Belvidere","country":"AU","refcode":"BVD"},{"latitude":-32.48,"longitude":151.39,"name":"Beresfield","country":"AU","refcode":"BFD"},{"latitude":-33.21,"longitude":151.26,"name":"Berkeley Vale","country":"AU","refcode":"BKE"},{"latitude":-38.25,"longitude":146.04,"name":"Berrys Creek","country":"AU","refcode":"BRR"},{"latitude":-41.52,"longitude":148.17,"name":"Bicheno","country":"AU","refcode":"BIC"},{"latitude":-15.36,"longitude":136.21,"name":"Bing Bong","country":"AU","refcode":"BBG"},{"latitude":-11.09,"longitude":132.09,"name":"Black Point","country":"AU","refcode":"BLP"},{"latitude":-42.59,"longitude":147.19,"name":"Blackmans Bay","country":"AU","refcode":"TTS"},{"latitude":-33.32,"longitude":149.15,"name":"Blayney","country":"AU","refcode":"BNY"},{"latitude":-31.43,"longitude":152.17,"name":"Bobin","country":"AU","refcode":"BOB"},{"latitude":-34.51,"longitude":150.37,"name":"Bomaderry","country":"AU","refcode":"BDY"},{"latitude":-10.36,"longitude":141.55,"name":"Booby Island","country":"AU","refcode":"BOO"},{"latitude":-27.2,"longitude":153.03,"name":"Boondall","country":"AU","refcode":"BOD"},{"latitude":-36.07,"longitude":143.43,"name":"Boort","country":"AU","refcode":"BOT"},{"latitude":-34.42,"longitude":143.09,"name":"Boundary Bend","country":"AU","refcode":"BOU"},{"latitude":-42.5,"longitude":147.18,"name":"Boyer","country":"AU","refcode":"BOY"},{"latitude":-34.23,"longitude":119.22,"name":"Bremer Bay","country":"AU","refcode":"BBY"},{"latitude":-36.36,"longitude":143.57,"name":"Bridgewater-on-Loddon","country":"AU","refcode":"BOL"},{"latitude":-41,"longitude":147.24,"name":"Bridport","country":"AU","refcode":"BPO"},{"latitude":-33.57,"longitude":151.09,"name":"Brighton-Le-Sands","country":"AU","refcode":"BSA"},{"latitude":-32.45,"longitude":151.06,"name":"Broke","country":"AU","refcode":"NSB"},{"latitude":-34.18,"longitude":150.55,"name":"Bulli","country":"AU","refcode":"BUL"},{"latitude":-31.4,"longitude":116,"name":"Bullsbrook","country":"AU","refcode":"BLL"},{"latitude":-27.04,"longitude":153.22,"name":"Bulwer","country":"AU","refcode":"BWI"},{"latitude":-37.52,"longitude":147.02,"name":"Bushy Park","country":"AU","refcode":"BYY"},{"latitude":-42.5,"longitude":147.27,"name":"Cambridge","country":"AU","refcode":"CMB"},{"latitude":-33.53,"longitude":151.1,"name":"Camperdown","country":"AU","refcode":"CMP"},{"latitude":-27.31,"longitude":153.11,"name":"Capalaba","country":"AU","refcode":"CAP"},{"latitude":-11.19,"longitude":131.45,"name":"Cape Don","country":"AU","refcode":"DON"},{"latitude":-36.38,"longitude":146.33,"name":"Carboor","country":"AU","refcode":"CBO"},{"latitude":-27.3,"longitude":153.05,"name":"Carina Heights","country":"AU","refcode":"CAR"},{"latitude":-33.47,"longitude":151.03,"name":"Carlingford","country":"AU","refcode":"CLF"},{"latitude":-31.53,"longitude":115.58,"name":"Caversham","country":"AU","refcode":"CVS"},{"latitude":-27.23,"longitude":153.1,"name":"Chermside","country":"AU","refcode":"CHE"},{"latitude":-28.14,"longitude":153.33,"name":"Chinderah","country":"AU","refcode":"CN6"},{"latitude":-31.29,"longitude":116.06,"name":"Chittering","country":"AU","refcode":"CHT"},{"latitude":-33.5,"longitude":138.36,"name":"Clare","country":"AU","refcode":"SCL"},{"latitude":-31.59,"longitude":115.47,"name":"Claremont","country":"AU","refcode":"CLM"},{"latitude":-35.07,"longitude":138.38,"name":"Clarendon","country":"AU","refcode":"CDN"},{"latitude":-27.32,"longitude":153.16,"name":"Cleveland","country":"AU","refcode":"CVN"},{"latitude":-33.54,"longitude":151.15,"name":"Clovelly","country":"AU","refcode":"CVL"},{"latitude":-37.43,"longitude":145.22,"name":"Coldstream","country":"AU","refcode":"CST"},{"latitude":-34,"longitude":151.04,"name":"Como","country":"AU","refcode":"CMO"},{"latitude":-26.56,"longitude":150.08,"name":"Condamine","country":"AU","refcode":"CDE"},{"latitude":-26.33,"longitude":153.05,"name":"Coolum","country":"AU","refcode":"COU"},{"latitude":-27.53,"longitude":153.18,"name":"Coomera","country":"AU","refcode":"COO"},{"latitude":-37.18,"longitude":140.49,"name":"Coonawarra","country":"AU","refcode":"CNW"},{"latitude":-27.3,"longitude":153.03,"name":"Coorparoo","country":"AU","refcode":"CPR"},{"latitude":-23.08,"longitude":113.46,"name":"Coral Bay","country":"AU","refcode":"CRL"},{"latitude":-19.05,"longitude":150.54,"name":"Coral Sea","country":"AU","refcode":"CRS"},{"latitude":-35.03,"longitude":138.37,"name":"Coromandel Valley","country":"AU","refcode":"CRV"},{"latitude":-32,"longitude":115.46,"name":"Cottesloe","country":"AU","refcode":"CTE"},{"latitude":-37.38,"longitude":145.13,"name":"Cottles Bridge","country":"AU","refcode":"CTT"},{"latitude":-34.55,"longitude":138.33,"name":"Cowandilla","country":"AU","refcode":"DIL"},{"latitude":-33.52,"longitude":115.05,"name":"Cowaramup","country":"AU","refcode":"COW"},{"latitude":-35,"longitude":138.42,"name":"Crafers","country":"AU","refcode":"CRF"},{"latitude":-27.41,"longitude":153.05,"name":"Crestmead","country":"AU","refcode":"CRE"},{"latitude":-34.46,"longitude":139,"name":"Cromer","country":"AU","refcode":"C8R"},{"latitude":-34.03,"longitude":151.09,"name":"Cronulla","country":"AU","refcode":"CRU"},{"latitude":-9.36,"longitude":143.18,"name":"Dalrymple Islet","country":"AU","refcode":"DIT"},{"latitude":-34.43,"longitude":149.11,"name":"Dalton","country":"AU","refcode":"DAL"},{"latitude":-33.24,"longitude":115.45,"name":"Dardanup","country":"AU","refcode":"DAR"},{"latitude":-12.15,"longitude":135.05,"name":"Dhipirrinjura","country":"AU","refcode":"DHI"},{"latitude":-37.4,"longitude":145.09,"name":"Diamond Creek","country":"AU","refcode":"DIA"},{"latitude":-38.1,"longitude":144.34,"name":"Drysdale","country":"AU","refcode":"DRY"},{"latitude":-34.39,"longitude":139.06,"name":"Eden Valley","country":"AU","refcode":"EDE"},{"latitude":-11.54,"longitude":136.33,"name":"Elizabeth Bay","country":"AU","refcode":"ELB"},{"latitude":-37.44,"longitude":145.09,"name":"Eltham","country":"AU","refcode":"ELT"},{"latitude":-12.4,"longitude":141.51,"name":"Evans Landing","country":"AU","refcode":"EVL"},{"latitude":-34.54,"longitude":138.32,"name":"Findon","country":"AU","refcode":"FIN"},{"latitude":-38.1,"longitude":146.41,"name":"Flynn","country":"AU","refcode":"FLN"},{"latitude":-34.22,"longitude":114.04,"name":"Frankland","country":"AU","refcode":"FLD"},{"latitude":-33.46,"longitude":151.17,"name":"Freshwater","country":"AU","refcode":"FWT"},{"latitude":-19.16,"longitude":146.46,"name":"Garbutt","country":"AU","refcode":"GBT"},{"latitude":-37.57,"longitude":145.33,"name":"Gembrook","country":"AU","refcode":"GEM"},{"latitude":-35.3,"longitude":138.47,"name":"Goolwa","country":"AU","refcode":"GOA"},{"latitude":-37.35,"longitude":144.06,"name":"Gordon","country":"AU","refcode":"GOR"},{"latitude":-12.13,"longitude":136.4,"name":"Gove Harbour","country":"AU","refcode":"GOH"},{"latitude":-27.35,"longitude":152.12,"name":"Grantham","country":"AU","refcode":"GTH"},{"latitude":-41.18,"longitude":146.58,"name":"Gravelly Beach","country":"AU","refcode":"GRB"},{"latitude":-37.09,"longitude":142.51,"name":"Great Western","country":"AU","refcode":"GTW"},{"latitude":-34.28,"longitude":138.55,"name":"Greenock","country":"AU","refcode":"GRK"},{"latitude":-37.44,"longitude":145.27,"name":"Gruyere","country":"AU","refcode":"GRU"},{"latitude":-34.5,"longitude":138.53,"name":"Gumeracha","country":"AU","refcode":"GUM"},{"latitude":-35.02,"longitude":138.48,"name":"Hahndorf","country":"AU","refcode":"HAH"},{"latitude":-35.04,"longitude":138.3,"name":"Halletts Cove","country":"AU","refcode":"HTT"},{"latitude":-38.2,"longitude":145.15,"name":"Hampton","country":"AU","refcode":"HAM"},{"latitude":-34.2,"longitude":146.02,"name":"Hanwood","country":"AU","refcode":"HWD"},{"latitude":-35.05,"longitude":138.32,"name":"Happy Valley","country":"AU","refcode":"HPP"},{"latitude":-38.18,"longitude":145.15,"name":"Hastings","country":"AU","refcode":"HAS"},{"latitude":-36.55,"longitude":144.43,"name":"Heathcote","country":"AU","refcode":"HTH"},{"latitude":-32.47,"longitude":151.44,"name":"Heatherbrae","country":"AU","refcode":"HBE"},{"latitude":-32.1,"longitude":115.46,"name":"Henderson","country":"AU","refcode":"HFR"},{"latitude":-37.5,"longitude":145.35,"name":"Hoddles Creek","country":"AU","refcode":"HDD"},{"latitude":-34.5,"longitude":138.38,"name":"Ingle Farm","country":"AU","refcode":"IGF"},{"latitude":-34.15,"longitude":142.1,"name":"Irymple","country":"AU","refcode":"IRY"},{"latitude":-32.21,"longitude":116.04,"name":"Jarrahdale","country":"AU","refcode":"JAR"},{"latitude":-35.09,"longitude":138.39,"name":"Kangarilla","country":"AU","refcode":"KAN"},{"latitude":-41.11,"longitude":146.53,"name":"Kayena","country":"AU","refcode":"KAY"},{"latitude":-36.06,"longitude":140.21,"name":"Keith","country":"AU","refcode":"KEI"},{"latitude":-34.34,"longitude":139.08,"name":"Keyneton","country":"AU","refcode":"KEY"},{"latitude":-33.04,"longitude":151.36,"name":"Lake Macquarie","country":"AU","refcode":"LMQ"},{"latitude":-37.53,"longitude":147.59,"name":"Lakes Entrance","country":"AU","refcode":"LEN"},{"latitude":-12.05,"longitude":135.21,"name":"Langarra","country":"AU","refcode":"LAN"},{"latitude":-37.45,"longitude":145.22,"name":"Lilydale","country":"AU","refcode":"LYD"},{"latitude":-33.23,"longitude":151.22,"name":"Lisarow","country":"AU","refcode":"LOW"},{"latitude":-33.41,"longitude":136.55,"name":"Lucky Bay","country":"AU","refcode":"LUB"},{"latitude":-33.46,"longitude":151.07,"name":"Macquarie Park","country":"AU","refcode":"MRK"},{"latitude":-37.47,"longitude":144.53,"name":"Maribyrnong","country":"AU","refcode":"MBY"},{"latitude":-33.55,"longitude":151.1,"name":"Marrickville","country":"AU","refcode":"MAR"},{"latitude":-37.3,"longitude":143.45,"name":"Maryborough","country":"AU","refcode":"SAD"},{"latitude":-38.55,"longitude":145.36,"name":"Maryknoll","country":"AU","refcode":"KLL"},{"latitude":-12.65,"longitude":124.05,"name":"Montara Field","country":"AU","refcode":"MON"},{"latitude":-26.41,"longitude":153.08,"name":"Mooloolaba","country":"AU","refcode":"MLL"},{"latitude":-34.17,"longitude":140.21,"name":"Moorook","country":"AU","refcode":"MOK"},{"latitude":-38.01,"longitude":145.05,"name":"Mordialloc","country":"AU","refcode":"MDC"},{"latitude":-27.32,"longitude":153.05,"name":"Mount Gravatt","country":"AU","refcode":"MGE"},{"latitude":-31.55,"longitude":115.5,"name":"Mount Hawthorn","country":"AU","refcode":"MHW"},{"latitude":-41.23,"longitude":147.08,"name":"Mowbray Heights","country":"AU","refcode":"MOW"},{"latitude":-36,"longitude":146,"name":"Mulwala","country":"AU","refcode":"MWA"},{"latitude":-34.12,"longitude":146.02,"name":"Nericon","country":"AU","refcode":"NEQ"},{"latitude":-42.47,"longitude":147.04,"name":"New Norfolk","country":"AU","refcode":"NLK"},{"latitude":-37.42,"longitude":143.39,"name":"Newtown","country":"AU","refcode":"VIC"},{"latitude":-21.29,"longitude":114,"name":"Nganhurra","country":"AU","refcode":"NGH"},{"latitude":-21.24,"longitude":114.05,"name":"Ningaloo Vision","country":"AU","refcode":"NIV"},{"latitude":-33.48,"longitude":151.13,"name":"North Bridge","country":"AU","refcode":"NB2"},{"latitude":-34.33,"longitude":150.49,"name":"Oak Flats","country":"AU","refcode":"OKF"},{"latitude":-33.53,"longitude":151.13,"name":"Paddington","country":"AU","refcode":"PAG"},{"latitude":-33.57,"longitude":151.02,"name":"Padstow","country":"AU","refcode":"DSW"},{"latitude":-12.28,"longitude":130.5,"name":"Palmerston","country":"AU","refcode":"PAL"},{"latitude":-33.48,"longitude":150.57,"name":"Pendle Hills","country":"AU","refcode":"PEN"},{"latitude":-38.29,"longitude":145.14,"name":"Phillip Island","country":"AU","refcode":"PIS"},{"latitude":-21.09,"longitude":149.01,"name":"Pleystowe","country":"AU","refcode":"PYT"},{"latitude":-38.07,"longitude":144.26,"name":"Point Henry Pier/Melbourne","country":"AU","refcode":"PHP"},{"latitude":-29.16,"longitude":114.56,"name":"Port Denison","country":"AU","refcode":"PDI"},{"latitude":-38.22,"longitude":142.14,"name":"Port Fairy","country":"AU","refcode":"FRY"},{"latitude":-34.04,"longitude":151.08,"name":"Port Hacking","country":"AU","refcode":"T3P"},{"latitude":-37.5,"longitude":144.56,"name":"Port Melbourne","country":"AU","refcode":"POR"},{"latitude":-27.23,"longitude":153.1,"name":"Port of Brisbane","country":"AU","refcode":"PBN"},{"latitude":-35.16,"longitude":138.27,"name":"Port Willunga","country":"AU","refcode":"PTW"},{"latitude":-37.51,"longitude":145,"name":"Prahran","country":"AU","refcode":"PHR"},{"latitude":-37.05,"longitude":143.29,"name":"Pyrenees","country":"AU","refcode":"PYE"},{"latitude":-33.52,"longitude":151.11,"name":"Pyrmont","country":"AU","refcode":"PYR"},{"latitude":-11.16,"longitude":132.23,"name":"Raffles Bay","country":"AU","refcode":"RAF"},{"latitude":-33.57,"longitude":151,"name":"Revesby","country":"AU","refcode":"REV"},{"latitude":-36.06,"longitude":138.32,"name":"Reynella","country":"AU","refcode":"RLL"},{"latitude":-33.5,"longitude":151.05,"name":"Rhodes","country":"AU","refcode":"RDS"},{"latitude":-37.11,"longitude":139.45,"name":"Robe","country":"AU","refcode":"ROB"},{"latitude":-23.1,"longitude":150.47,"name":"Rosslyn Bay","country":"AU","refcode":"RNB"},{"latitude":-33.51,"longitude":151.1,"name":"Rozelle","country":"AU","refcode":"ROZ"},{"latitude":-32.52,"longitude":151.42,"name":"Sandgate","country":"AU","refcode":"SGT"},{"latitude":-37.54,"longitude":145.13,"name":"Scoresby","country":"AU","refcode":"SCY"},{"latitude":-37.55,"longitude":145.23,"name":"Selby","country":"AU","refcode":"5CI"},{"latitude":-27.33,"longitude":152.57,"name":"Seventeen Mile Rocks/Brisbane","country":"AU","refcode":"SMR"},{"latitude":-11.45,"longitude":142.01,"name":"Skardon River","country":"AU","refcode":"SKA"},{"latitude":-27.28,"longitude":153.01,"name":"South Brisbane","country":"AU","refcode":"SBN"},{"latitude":-23.54,"longitude":151.17,"name":"South Trees","country":"AU","refcode":"STR"},{"latitude":-41.13,"longitude":146.21,"name":"Spreyton","country":"AU","refcode":"SPO"},{"latitude":-33.53,"longitude":151.13,"name":"Surry Hills","country":"AU","refcode":"SUH"},{"latitude":-34.01,"longitude":151.06,"name":"Sylvania","country":"AU","refcode":"SYL"},{"latitude":-32.4,"longitude":152.09,"name":"Tea Gardens","country":"AU","refcode":"DGA"},{"latitude":-38.22,"longitude":145.33,"name":"The Gurdies","country":"AU","refcode":"GUR"},{"latitude":-21.27,"longitude":114.59,"name":"Thevenard Island","country":"AU","refcode":"CTH"},{"latitude":-38.13,"longitude":145.23,"name":"Tooradin","country":"AU","refcode":"TRD"},{"latitude":-33,"longitude":151.36,"name":"Toronto","country":"AU","refcode":"TOR"},{"latitude":-13.45,"longitude":126.08,"name":"Troughton Island","country":"AU","refcode":"TRI"},{"latitude":-28.12,"longitude":153.32,"name":"Tweed Heads South","country":"AU","refcode":"THS"},{"latitude":-34.36,"longitude":138.3,"name":"Twowells","country":"AU","refcode":"DA5"},{"latitude":-35.21,"longitude":150.25,"name":"Ulladulla","country":"AU","refcode":"ULA"},{"latitude":-13.51,"longitude":136.48,"name":"Umbakumba","country":"AU","refcode":"UMB"},{"latitude":-32.58,"longitude":151.39,"name":"Warners Bay","country":"AU","refcode":"WSN"},{"latitude":-38,"longitude":145.07,"name":"Waterways","country":"AU","refcode":"WTW"},{"latitude":-28.45,"longitude":114.37,"name":"Webberton","country":"AU","refcode":"WTN"},{"latitude":-34.54,"longitude":138.32,"name":"Welland","country":"AU","refcode":"KJH"},{"latitude":-33.5,"longitude":151.04,"name":"Wentworth Point","country":"AU","refcode":"WWP"},{"latitude":-37.54,"longitude":144.39,"name":"Werribee","country":"AU","refcode":"WRB"},{"latitude":-20.35,"longitude":116.47,"name":"Withnell Bay","country":"AU","refcode":"WNB"},{"latitude":-33.52,"longitude":151.13,"name":"Woolloomooloo","country":"AU","refcode":"WOO"},{"latitude":-37.47,"longitude":145.37,"name":"Yarra Junction","country":"AU","refcode":"YRR"},{"latitude":12.29,"longitude":-69.59,"name":"Barcadera","country":"AW","refcode":"BAR"},{"latitude":12.33,"longitude":-69.58,"name":"Bushiribana","country":"AW","refcode":"BUS"},{"latitude":41.59,"longitude":47.35,"name":"Khachmaz","country":"AZ","refcode":"KMZ"},{"latitude":40.15,"longitude":49.36,"name":"Qaradag","country":"AZ","refcode":"QDG"},{"latitude":39.55,"longitude":48.55,"name":"Shirvan","country":"AZ","refcode":"SHI"},{"latitude":40.35,"longitude":49.4,"name":"Sumqayit","country":"AZ","refcode":"SUQ"},{"latitude":44.58,"longitude":15.56,"name":"Cazin","country":"BA","refcode":"4CA"},{"latitude":45.03,"longitude":18.34,"name":"Domaljevac","country":"BA","refcode":"DOJ"},{"latitude":43.57,"longitude":17.54,"name":"Fojnica","country":"BA","refcode":"FOJ"},{"latitude":43.39,"longitude":17.45,"name":"Jablanica","country":"BA","refcode":"JBA"},{"latitude":44.32,"longitude":18.05,"name":"Maglaj","country":"BA","refcode":"MAG"},{"latitude":42.55,"longitude":17.37,"name":"Neum","country":"BA","refcode":"NEM"},{"latitude":44.46,"longitude":16.4,"name":"Sanski Most","country":"BA","refcode":"SMT"},{"latitude":43.54,"longitude":18.21,"name":"Vogosca","country":"BA","refcode":"VGS"},{"latitude":44.23,"longitude":19.06,"name":"Zvornik","country":"BA","refcode":"ZNK"},{"latitude":13.07,"longitude":-59.36,"name":"Saint Michael","country":"BB","refcode":"STM"},{"latitude":24.02,"longitude":91.01,"name":"Ashuganj","country":"BD","refcode":"ASJ"},{"latitude":23.03,"longitude":88.54,"name":"Benapole","country":"BD","refcode":"BNP"},{"latitude":23.33,"longitude":-90.32,"name":"Munshiganj","country":"BD","refcode":"MUN"},{"latitude":23.39,"longitude":90.27,"name":"Pangaon","country":"BD","refcode":"PGN"},{"latitude":21.56,"longitude":90.16,"name":"Payra Port","country":"BD","refcode":"PAY"},{"latitude":50.29,"longitude":5.06,"name":"Andenne","country":"BE","refcode":"AND"},{"latitude":50.49,"longitude":3.58,"name":"Appelterre-Eichem","country":"BE","refcode":"APT"},{"latitude":50.59,"longitude":3.33,"name":"Astene","country":"BE","refcode":"AST"},{"latitude":50.22,"longitude":3.46,"name":"Athis","country":"BE","refcode":"7PD"},{"latitude":50.36,"longitude":5.24,"name":"Awirs","country":"BE","refcode":"W5R"},{"latitude":51.02,"longitude":4.1,"name":"Baasrode","country":"BE","refcode":"BSR"},{"latitude":50.17,"longitude":5.2,"name":"Baillonville","country":"BE","refcode":"BAI"},{"latitude":51.12,"longitude":3.31,"name":"Balgerhoek","country":"BE","refcode":"BGK"},{"latitude":50.47,"longitude":3.3,"name":"Berchem","country":"BE","refcode":"BCM"},{"latitude":50.21,"longitude":3.53,"name":"Blaregnies","country":"BE","refcode":"WHT"},{"latitude":50.59,"longitude":4.34,"name":"Boortmeerbeek","country":"BE","refcode":"BMB"},{"latitude":50.23,"longitude":3.56,"name":"Bougnies","country":"BE","refcode":"BO2"},{"latitude":50.41,"longitude":5.4,"name":"Chertal","country":"BE","refcode":"CTA"},{"latitude":50.28,"longitude":4.22,"name":"Courcelles","country":"BE","refcode":"CCS"},{"latitude":51.08,"longitude":3.59,"name":"Daknam","country":"BE","refcode":"DKN"},{"latitude":51,"longitude":4.05,"name":"Denderbelle","country":"BE","refcode":"DNB"},{"latitude":51.03,"longitude":3.4,"name":"Drongen","country":"BE","refcode":"DGN"},{"latitude":50.48,"longitude":5.4,"name":"Eben-Emael","country":"BE","refcode":"9IR"},{"latitude":50.57,"longitude":3.38,"name":"Eke","country":"BE","refcode":"EQE"},{"latitude":51.09,"longitude":3.58,"name":"Eksaarde","country":"BE","refcode":"EKS"},{"latitude":50.51,"longitude":3.38,"name":"Ename","country":"BE","refcode":"EAM"},{"latitude":50.42,"longitude":3.15,"name":"Estaimpuis","country":"BE","refcode":"EMP"},{"latitude":49.35,"longitude":5.35,"name":"Ethe","country":"BE","refcode":"EET"},{"latitude":50.26,"longitude":4.44,"name":"Franiere","country":"BE","refcode":"FNR"},{"latitude":50.56,"longitude":3.4,"name":"Gavere","country":"BE","refcode":"GVR"},{"latitude":51.1,"longitude":5,"name":"Geel","country":"BE","refcode":"GEL"},{"latitude":51.01,"longitude":5.14,"name":"Genenbos","country":"BE","refcode":"GBH"},{"latitude":50.46,"longitude":3.52,"name":"Geraardsbergen","country":"BE","refcode":"GEA"},{"latitude":50.44,"longitude":5.4,"name":"Haccourt","country":"BE","refcode":"HCT"},{"latitude":50.47,"longitude":3.08,"name":"Halluin","country":"BE","refcode":"HLU"},{"latitude":51.05,"longitude":3.32,"name":"Hamme","country":"BE","refcode":"HMM"},{"latitude":50.26,"longitude":4.4,"name":"Ham-sur-Sambre","country":"BE","refcode":"HMB"},{"latitude":51.01,"longitude":3,"name":"Handzame","country":"BE","refcode":"HNA"},{"latitude":50.53,"longitude":4.25,"name":"Haren","country":"BE","refcode":"HAR"},{"latitude":51.12,"longitude":5.27,"name":"Herent","country":"BE","refcode":"HET"},{"latitude":50.12,"longitude":4.49,"name":"Hermeton-sur-Meuse","country":"BE","refcode":"HTM"},{"latitude":50.18,"longitude":4.54,"name":"Houx","country":"BE","refcode":"HUX"},{"latitude":50.31,"longitude":5.14,"name":"Huy","country":"BE","refcode":"HUY"},{"latitude":50.27,"longitude":4.53,"name":"Jambes","country":"BE","refcode":"JAM"},{"latitude":50.39,"longitude":5.38,"name":"Jupille-sur-Meuse","country":"BE","refcode":"JAK"},{"latitude":50.56,"longitude":3.11,"name":"Kachtem","country":"BE","refcode":"KCT"},{"latitude":51.11,"longitude":5.31,"name":"Kaulille","country":"BE","refcode":"KLE"},{"latitude":50.57,"longitude":5.18,"name":"Kuringen","country":"BE","refcode":"KRN"},{"latitude":51.06,"longitude":5.08,"name":"Kwaadmechelen","country":"BE","refcode":"KWA"},{"latitude":50.34,"longitude":3.46,"name":"Ladeuze","country":"BE","refcode":"LUZ"},{"latitude":51.03,"longitude":3.34,"name":"Landegem","country":"BE","refcode":"LGM"},{"latitude":50.39,"longitude":3.48,"name":"Lanquesaint","country":"BE","refcode":"LQA"},{"latitude":50.48,"longitude":3.11,"name":"Lauwe","country":"BE","refcode":"LAW"},{"latitude":50.21,"longitude":4.15,"name":"Lobbes","country":"BE","refcode":"LBS"},{"latitude":51.06,"longitude":3.59,"name":"Lokeren","country":"BE","refcode":"LOK"},{"latitude":50.23,"longitude":4.54,"name":"Lustin","country":"BE","refcode":"LUI"},{"latitude":50.4,"longitude":4.27,"name":"Maransart","country":"BE","refcode":"WBR"},{"latitude":50.29,"longitude":4.58,"name":"Marche-les-Dames","country":"BE","refcode":"MLD"},{"latitude":50.33,"longitude":3.3,"name":"Maubray","country":"BE","refcode":"MBY"},{"latitude":51.01,"longitude":3.32,"name":"Meigem","country":"BE","refcode":"MGM"},{"latitude":50.54,"longitude":3.42,"name":"Meilegem","country":"BE","refcode":"MEG"},{"latitude":50.58,"longitude":3.42,"name":"Melsen","country":"BE","refcode":"ELS"},{"latitude":51,"longitude":4.04,"name":"Mespelare","country":"BE","refcode":"MSP"},{"latitude":51.1,"longitude":3.16,"name":"Moerbrugge","country":"BE","refcode":"MRB"},{"latitude":51.04,"longitude":4.09,"name":"Moerzeke","country":"BE","refcode":"MZK"},{"latitude":50.27,"longitude":4.35,"name":"Moignelee","country":"BE","refcode":"MGN"},{"latitude":51.11,"longitude":5.06,"name":"Mol","country":"BE","refcode":"MLO"},{"latitude":50.27,"longitude":3.56,"name":"Mons","country":"BE","refcode":"MQS"},{"latitude":50.27,"longitude":4.42,"name":"Mornimont","country":"BE","refcode":"MRO"},{"latitude":51.01,"longitude":4.31,"name":"Muizen","country":"BE","refcode":"MUI"},{"latitude":50.28,"longitude":5,"name":"Nameche","country":"BE","refcode":"NMC"},{"latitude":50.55,"longitude":5.41,"name":"Neerharen","country":"BE","refcode":"NHA"},{"latitude":50.14,"longitude":4.55,"name":"Neffe","country":"BE","refcode":"NFE"},{"latitude":50.32,"longitude":5.17,"name":"Neuville-sous-Huy","country":"BE","refcode":"NHY"},{"latitude":50.5,"longitude":4.01,"name":"Ninove","country":"BE","refcode":"NNV"},{"latitude":50.56,"longitude":3.26,"name":"Oeselgem","country":"BE","refcode":"OSG"},{"latitude":50.51,"longitude":4.03,"name":"Okegem","country":"BE","refcode":"OKG"},{"latitude":50.47,"longitude":3.54,"name":"Onkerzele","country":"BE","refcode":"OZL"},{"latitude":50.53,"longitude":3.2,"name":"Ooigem","country":"BE","refcode":"OOG"},{"latitude":51.07,"longitude":4.58,"name":"Oosterlo","country":"BE","refcode":"OTL"},{"latitude":51.09,"longitude":3.14,"name":"Oostkamp","country":"BE","refcode":"OKP"},{"latitude":51.17,"longitude":3.17,"name":"Oostkerke","country":"BE","refcode":"OTK"},{"latitude":51.07,"longitude":5.39,"name":"Opitter","country":"BE","refcode":"OPI"},{"latitude":50.45,"longitude":3.28,"name":"Orroir","country":"BE","refcode":"ORR"},{"latitude":51.13,"longitude":5.25,"name":"Overpelt","country":"BE","refcode":"OVE"},{"latitude":50.5,"longitude":4.04,"name":"Pamel","country":"BE","refcode":"PML"},{"latitude":50.33,"longitude":3.26,"name":"Peronnes","country":"BE","refcode":"PES"},{"latitude":50.58,"longitude":2.44,"name":"Pollinkhove","country":"BE","refcode":"PKH"},{"latitude":50.3,"longitude":4.21,"name":"Pont-a-Celles","country":"BE","refcode":"PCL"},{"latitude":50.43,"longitude":5.41,"name":"Richelle","country":"BE","refcode":"RCL"},{"latitude":50.21,"longitude":4.52,"name":"Riviere","country":"BE","refcode":"RVE"},{"latitude":50.41,"longitude":5.33,"name":"Rocourt","country":"BE","refcode":"RJT"},{"latitude":50.36,"longitude":4.13,"name":"Ronquieres","country":"BE","refcode":"RQS"},{"latitude":50.26,"longitude":4.35,"name":"Roselies","country":"BE","refcode":"ROS"},{"latitude":51.08,"longitude":4.17,"name":"Rupelmonde","country":"BE","refcode":"RPM"},{"latitude":50.03,"longitude":4.15,"name":"Salles","country":"BE","refcode":"SLS"},{"latitude":50.28,"longitude":4.59,"name":"Samson","country":"BE","refcode":"SSO"},{"latitude":51.13,"longitude":2.57,"name":"Sas-Slijkens","country":"BE","refcode":"SLJ"},{"latitude":50.58,"longitude":3.43,"name":"Schelderode","country":"BE","refcode":"SHR"},{"latitude":51,"longitude":2.49,"name":"Sint-Jacobs-Kapelle","country":"BE","refcode":"JKP"},{"latitude":50.18,"longitude":4.08,"name":"Solre-sur-Sambre","country":"BE","refcode":"SSB"},{"latitude":50.5,"longitude":3.18,"name":"Stasegem","country":"BE","refcode":"SGM"},{"latitude":50.32,"longitude":5.13,"name":"Statte","country":"BE","refcode":"STT"},{"latitude":50.54,"longitude":4.06,"name":"Teralfene","country":"BE","refcode":"TFN"},{"latitude":51.38,"longitude":2.55,"name":"Thorntonbank","country":"BE","refcode":"TOB"},{"latitude":50.37,"longitude":5.32,"name":"Tilleur","country":"BE","refcode":"TLR"},{"latitude":51.02,"longitude":4.22,"name":"Tisselt","country":"BE","refcode":"TIS"},{"latitude":50.35,"longitude":5.29,"name":"Val Saint-Lambert","country":"BE","refcode":"VSB"},{"latitude":50.04,"longitude":4.22,"name":"Vaulx","country":"BE","refcode":"VLX"},{"latitude":50.3,"longitude":5.01,"name":"Vezin","country":"BE","refcode":"VZI"},{"latitude":50.29,"longitude":4.24,"name":"Viesville","country":"BE","refcode":"VVI"},{"latitude":51.07,"longitude":3.13,"name":"Waardamme","country":"BE","refcode":"WDM"},{"latitude":51.04,"longitude":4.28,"name":"Walem","country":"BE","refcode":"WLM"},{"latitude":50.42,"longitude":3.2,"name":"Warcoing","country":"BE","refcode":"WCG"},{"latitude":51.04,"longitude":4.22,"name":"Willebroek","country":"BE","refcode":"WLB"},{"latitude":51.06,"longitude":2.42,"name":"Wulpen","country":"BE","refcode":"WLP"},{"latitude":51.12,"longitude":2.58,"name":"Zandvoorde","country":"BE","refcode":"ZVD"},{"latitude":50.59,"longitude":4.28,"name":"Zemst","country":"BE","refcode":"ZET"},{"latitude":12.35,"longitude":-1.18,"name":"Ziniare","country":"BF","refcode":"OB2"},{"latitude":42.06,"longitude":27.57,"name":"Akhtopol","country":"BG","refcode":"AKH"},{"latitude":43.25,"longitude":28.1,"name":"Balchik","country":"BG","refcode":"BAL"},{"latitude":43.12,"longitude":25.18,"name":"Byala Cherkva","country":"BG","refcode":"VT4"},{"latitude":43.28,"longitude":23.57,"name":"Byala Slatina","country":"BG","refcode":"BSL"},{"latitude":42.39,"longitude":25.47,"name":"Gurkovo","country":"BG","refcode":"GUR"},{"latitude":43.15,"longitude":27.46,"name":"Ignatievo","country":"BG","refcode":"4IG"},{"latitude":42.02,"longitude":24.47,"name":"Kuklen","country":"BG","refcode":"KUK"},{"latitude":41.36,"longitude":23.48,"name":"Marchevo","country":"BG","refcode":"MAB"},{"latitude":42.39,"longitude":27.44,"name":"Nessebar","country":"BG","refcode":"NES"},{"latitude":43.41,"longitude":24.53,"name":"Nikopol","country":"BG","refcode":"NPO"},{"latitude":43.44,"longitude":23.57,"name":"Oryakhovo","country":"BG","refcode":"OKH"},{"latitude":42.25,"longitude":27.42,"name":"Sozopol","country":"BG","refcode":"SOZ"},{"latitude":42.36,"longitude":26.41,"name":"Straldzha","country":"BG","refcode":"S3W"},{"latitude":26.14,"longitude":50.39,"name":"Al Hidd","country":"BH","refcode":"AHD"},{"latitude":26.15,"longitude":50.36,"name":"Al Muharraq","country":"BH","refcode":"GBQ"},{"latitude":26.12,"longitude":50.37,"name":"Khalifa Bin Salman Port","country":"BH","refcode":"KBS"},{"latitude":26.12,"longitude":50.37,"name":"Mina Sulman Port","country":"BH","refcode":"MIN"},{"latitude":26.08,"longitude":50.37,"name":"Sitrah","country":"BH","refcode":"SIT"},{"latitude":-3.2,"longitude":29.22,"name":"Cibitoke","country":"BI","refcode":"CBK"},{"latitude":6.29,"longitude":2.37,"name":"Porto-Novo","country":"BJ","refcode":"PTN"},{"latitude":32.18,"longitude":-64.45,"name":"Devonshire","country":"BM","refcode":"SEV"},{"latitude":25.3,"longitude":-76.38,"name":"Harbour Island","country":"BM","refcode":"HBI"},{"latitude":32.23,"longitude":-64.41,"name":"Saint George","country":"BM","refcode":"SGE"},{"latitude":32.18,"longitude":-64.52,"name":"Sandys","country":"BM","refcode":"SAN"},{"latitude":32.15,"longitude":-64.51,"name":"Southampton","country":"BM","refcode":"SOU"},{"latitude":-16.1,"longitude":-68.44,"name":"Huatajata","country":"BO","refcode":"HTJ"},{"latitude":-11.05,"longitude":-67.38,"name":"Puerto Rico","country":"BO","refcode":"PUR"},{"latitude":12.14,"longitude":-68.2,"name":"Dorp Rincon","country":"BQ","refcode":"RIN"},{"latitude":12.13,"longitude":-68.23,"name":"Goto","country":"BQ","refcode":"GOT"},{"latitude":-19.09,"longitude":-45.27,"name":"Abaete","country":"BR","refcode":"ABT"},{"latitude":-1.42,"longitude":-48.54,"name":"Abaetetuba","country":"BR","refcode":"ATB"},{"latitude":-26.34,"longitude":-52.2,"name":"Abelardo Luz","country":"BR","refcode":"ADL"},{"latitude":-21.5,"longitude":-41,"name":"Acu Pt/Sao Joao da Barra","country":"BR","refcode":"ACX"},{"latitude":-12.08,"longitude":-38.25,"name":"Alagoinhas","country":"BR","refcode":"AGS"},{"latitude":-7.26,"longitude":-34.54,"name":"Alhandra","country":"BR","refcode":"ALH"},{"latitude":-20.52,"longitude":-46.23,"name":"Alpinopolis","country":"BR","refcode":"ALP"},{"latitude":-2.4,"longitude":-44.21,"name":"Alumar","country":"BR","refcode":"ALU"},{"latitude":-4.57,"longitude":-37.08,"name":"Areia Branca","country":"BR","refcode":"ARE"},{"latitude":-5.05,"longitude":-37.37,"name":"Barauna","country":"BR","refcode":"BUN"},{"latitude":-19.51,"longitude":-40.03,"name":"Barra do Riacho Pt / Aracruz","country":"BR","refcode":"RCH"},{"latitude":-10.54,"longitude":-37.03,"name":"Barra dos Coqueiros","country":"BR","refcode":"BAR"},{"latitude":-6.58,"longitude":-34.5,"name":"Cabedelo Pt","country":"BR","refcode":"CDO"},{"latitude":-22.29,"longitude":-42.39,"name":"Cachoeiras de Macacu","country":"BR","refcode":"CDM"},{"latitude":-26.59,"longitude":-48.38,"name":"Camboriu","country":"BR","refcode":"CBU"},{"latitude":-23.01,"longitude":-47.31,"name":"Capivari","country":"BR","refcode":"CPI"},{"latitude":-9.23,"longitude":-41.1,"name":"Casa Nova","country":"BR","refcode":"CAV"},{"latitude":-5.38,"longitude":-35.25,"name":"Ceara-Mirim","country":"BR","refcode":"CEA"},{"latitude":-3.5,"longitude":-62.05,"name":"Codajas","country":"BR","refcode":"CDA"},{"latitude":-8.59,"longitude":-39.54,"name":"Curaca","country":"BR","refcode":"CUA"},{"latitude":-12.37,"longitude":-38.18,"name":"Dias d'Avila","country":"BR","refcode":"DIA"},{"latitude":-8.12,"longitude":-72.56,"name":"Estrema","country":"BR","refcode":"ESA"},{"latitude":-22.58,"longitude":-42.02,"name":"Forno Pt/Arraial do Cabo","country":"BR","refcode":"FNO"},{"latitude":-5.06,"longitude":-36.19,"name":"Guamare","country":"BR","refcode":"GUA"},{"latitude":-25.55,"longitude":-48.35,"name":"Guaratuba","country":"BR","refcode":"GTB"},{"latitude":-8.24,"longitude":-35.03,"name":"Ipojuca","country":"BR","refcode":"IPO"},{"latitude":-20.15,"longitude":-43.48,"name":"Itabirito","country":"BR","refcode":"IRO"},{"latitude":-3.08,"longitude":-58.26,"name":"Itacoatiara","country":"BR","refcode":"IAR"},{"latitude":-22.52,"longitude":-43.47,"name":"Itaguai Pt = Sepetiba Pt","country":"BR","refcode":"SPB"},{"latitude":-21.01,"longitude":-40.5,"name":"Itapemirim","country":"BR","refcode":"ITZ"},{"latitude":-26.07,"longitude":-48.36,"name":"Itapoa","country":"BR","refcode":"IOA"},{"latitude":-2.36,"longitude":-44.21,"name":"Itaqui","country":"BR","refcode":"IQI"},{"latitude":-24.15,"longitude":-49.42,"name":"Jaguariaiva","country":"BR","refcode":"JRV"},{"latitude":-2.1,"longitude":-56.05,"name":"Juruti","country":"BR","refcode":"JUR"},{"latitude":-12.55,"longitude":-38.21,"name":"Lauro de Freitas","country":"BR","refcode":"LDF"},{"latitude":-5.51,"longitude":-35.21,"name":"Macaiba","country":"BR","refcode":"MAI"},{"latitude":-0.54,"longitude":-52.25,"name":"Munguba","country":"BR","refcode":"MGU"},{"latitude":-29.34,"longitude":-50.54,"name":"Nova Hartz","country":"BR","refcode":"HAR"},{"latitude":-19.41,"longitude":-43.34,"name":"Nova Uniao","country":"BR","refcode":"NVU"},{"latitude":-1.15,"longitude":-48.26,"name":"Outeiro","country":"BR","refcode":"OUT"},{"latitude":-12.33,"longitude":-47.51,"name":"Parana","country":"BR","refcode":"PNN"},{"latitude":-3.32,"longitude":-38.52,"name":"Pecem Pt/Sao Goncalo do Amarante","country":"BR","refcode":"PEC"},{"latitude":-12.51,"longitude":-62.54,"name":"Pedras Negras","country":"BR","refcode":"PEN"},{"latitude":-26.45,"longitude":-49.1,"name":"Pomerode","country":"BR","refcode":"POM"},{"latitude":-2.33,"longitude":-44.22,"name":"Ponta da Madeira","country":"BR","refcode":"PMA"},{"latitude":-20.47,"longitude":-40.35,"name":"Ponta do Ubu Pt/Anchieta","country":"BR","refcode":"POU"},{"latitude":-22.5,"longitude":-45.15,"name":"Potim","country":"BR","refcode":"POI"},{"latitude":-19.38,"longitude":-39.49,"name":"Regencia Terminal/Linhares","country":"BR","refcode":"REL"},{"latitude":-22.53,"longitude":-43.14,"name":"Rio de Janeiro","country":"BR","refcode":"RIO"},{"latitude":-22.57,"longitude":-49.58,"name":"Salto Grande","country":"BR","refcode":"SAL"},{"latitude":-0.46,"longitude":-48.31,"name":"Salvaterra","country":"BR","refcode":"SLV"},{"latitude":-0.03,"longitude":-51.1,"name":"Santana Pt./Macapa","country":"BR","refcode":"MCP"},{"latitude":-21.34,"longitude":-42.11,"name":"Santo Antonio de Padua","country":"BR","refcode":"STA"},{"latitude":-18.43,"longitude":-39.51,"name":"Sao Mateus","country":"BR","refcode":"SBJ"},{"latitude":-22.52,"longitude":-51.08,"name":"Sao Tome","country":"BR","refcode":"SOM"},{"latitude":-23.57,"longitude":-46.23,"name":"Sao Vicente","country":"BR","refcode":"SVT"},{"latitude":-9.43,"longitude":-41.17,"name":"Sento Se","country":"BR","refcode":"STS"},{"latitude":-13.31,"longitude":-39.06,"name":"Taperoa","country":"BR","refcode":"TPR"},{"latitude":-26.51,"longitude":-49.17,"name":"Timbo","country":"BR","refcode":"TMO"},{"latitude":-29.32,"longitude":-50.48,"name":"Tres Coroas","country":"BR","refcode":"ROA"},{"latitude":-29.57,"longitude":-51.43,"name":"Triunfo","country":"BR","refcode":"TFO"},{"latitude":-20.17,"longitude":-40.14,"name":"Tubarao Pt./Vitoria","country":"BR","refcode":"TUB"},{"latitude":-2.45,"longitude":-42.16,"name":"Tutoia","country":"BR","refcode":"TUT"},{"latitude":-12.57,"longitude":-38.36,"name":"Vera Cruz","country":"BR","refcode":"VZC"},{"latitude":-1.32,"longitude":-48.44,"name":"Vila do Conde Pt/Barcarena","country":"BR","refcode":"VDC"},{"latitude":-20.19,"longitude":-40.2,"name":"Vitoria Pt","country":"BR","refcode":"VIX"},{"latitude":23.49,"longitude":-76.1,"name":"Bock Cay","country":"BS","refcode":"BKC"},{"latitude":26.05,"longitude":-77.32,"name":"Gorda Cay","country":"BS","refcode":"GOC"},{"latitude":23.32,"longitude":-75.5,"name":"Great Exuma Island","country":"BS","refcode":"EXU"},{"latitude":24.35,"longitude":-75.55,"name":"Little San Salvador","country":"BS","refcode":"HMC"},{"latitude":-20.35,"longitude":26.32,"name":"Dukwi","country":"BW","refcode":"DUK"},{"latitude":-23.06,"longitude":26.5,"name":"Mahalapye","country":"BW","refcode":"MAH"},{"latitude":53.03,"longitude":26.37,"name":"Kletsk","country":"BY","refcode":"KLK"},{"latitude":53.21,"longitude":32.03,"name":"Kostyukovichi","country":"BY","refcode":"KYC"},{"latitude":52.07,"longitude":26.05,"name":"Pinsk","country":"BY","refcode":"PIK"},{"latitude":52.21,"longitude":30.24,"name":"Rechytsa","country":"BY","refcode":"RYA"},{"latitude":53.06,"longitude":25.19,"name":"Slonim","country":"BY","refcode":"SNM"},{"latitude":53.09,"longitude":24.26,"name":"Vawkavysk","country":"BY","refcode":"VAW"},{"latitude":16,"longitude":-88.55,"name":"Barranco","country":"BZ","refcode":"BAR"},{"latitude":16.31,"longitude":-88.24,"name":"Big Creek","country":"BZ","refcode":"BGK"},{"latitude":16.58,"longitude":-88.13,"name":"Dangriga","country":"BZ","refcode":"DGA"},{"latitude":54.55,"longitude":-58.55,"name":"Adlavik","country":"CA","refcode":"ALK"},{"latitude":48.33,"longitude":-58.46,"name":"Aguathuna","country":"CA","refcode":"AGU"},{"latitude":56.26,"longitude":-111.02,"name":"Anzac","country":"CA","refcode":"ANZ"},{"latitude":73.02,"longitude":-85.1,"name":"Arctic Bay","country":"CA","refcode":"ARB"},{"latitude":45.31,"longitude":-61.01,"name":"Arichat","country":"CA","refcode":"ARI"},{"latitude":47.46,"longitude":-53.59,"name":"Arnold's Cove","country":"CA","refcode":"ARC"},{"latitude":52.07,"longitude":-107.13,"name":"Asquith","country":"CA","refcode":"ASQ"},{"latitude":47.59,"longitude":-66.43,"name":"Atholville","country":"CA","refcode":"ALV"},{"latitude":47.25,"longitude":-53.12,"name":"Avondale","country":"CA","refcode":"AVO"},{"latitude":45.06,"longitude":-64.15,"name":"Avonport","country":"CA","refcode":"AVP"},{"latitude":49.55,"longitude":-56.11,"name":"Baie Verte","country":"CA","refcode":"BVE"},{"latitude":50.18,"longitude":-62.5,"name":"Baie-Johan-Beetz","country":"CA","refcode":"BJO"},{"latitude":64.19,"longitude":-96.02,"name":"Baker Lake","country":"CA","refcode":"BLK"},{"latitude":45,"longitude":-79.36,"name":"Bala","country":"CA","refcode":"BAA"},{"latitude":44.28,"longitude":-63.34,"name":"Bald Rock","country":"CA","refcode":"BDR"},{"latitude":50.29,"longitude":-111.44,"name":"Bantry","country":"CA","refcode":"NTR"},{"latitude":43.34,"longitude":-65.34,"name":"Barrington","country":"CA","refcode":"BAN"},{"latitude":47.2,"longitude":-52.5,"name":"Bay Bulls","country":"CA","refcode":"BBU"},{"latitude":47.35,"longitude":-53.18,"name":"Bay Roberts","country":"CA","refcode":"BYR"},{"latitude":45.08,"longitude":-67.07,"name":"Bayside, Charlotte","country":"CA","refcode":"BST"},{"latitude":46.01,"longitude":-62.29,"name":"Beach Point","country":"CA","refcode":"BPO"},{"latitude":50.31,"longitude":-126.52,"name":"Beaver Cove","country":"CA","refcode":"BEA"},{"latitude":46.2,"longitude":-72.26,"name":"Becancour","country":"CA","refcode":"BEC"},{"latitude":44.43,"longitude":-63.41,"name":"Bedford","country":"CA","refcode":"BDF"},{"latitude":47.41,"longitude":-65.42,"name":"Beresford","country":"CA","refcode":"BFR"},{"latitude":44.32,"longitude":-78.33,"name":"Bobcaygeon","country":"CA","refcode":"BOB"},{"latitude":46.15,"longitude":-63.42,"name":"Borden","country":"CA","refcode":"BOR"},{"latitude":49.09,"longitude":-55.22,"name":"Botwood","country":"CA","refcode":"BWD"},{"latitude":46.28,"longitude":-64.43,"name":"Bouctouche","country":"CA","refcode":"BUE"},{"latitude":50.25,"longitude":-112.16,"name":"Bow City","country":"CA","refcode":"BC2"},{"latitude":49.22,"longitude":-123.2,"name":"Bowen Island","country":"CA","refcode":"BNI"},{"latitude":48.35,"longitude":-123.27,"name":"Brentwood Bay","country":"CA","refcode":"BRD"},{"latitude":47.5,"longitude":-53.52,"name":"Bull Arm","country":"CA","refcode":"BUA"},{"latitude":47.36,"longitude":-57.38,"name":"Burgeo","country":"CA","refcode":"BUO"},{"latitude":48.42,"longitude":-53.48,"name":"Burnside","country":"CA","refcode":"BUS"},{"latitude":49.18,"longitude":-123.11,"name":"Burrard Inlet","country":"CA","refcode":"BIN"},{"latitude":50.01,"longitude":-125.15,"name":"Campbell River","country":"CA","refcode":"CAM"},{"latitude":44.18,"longitude":-77.47,"name":"Campbellford","country":"CA","refcode":"CBF"},{"latitude":45.2,"longitude":-61,"name":"Canso","country":"CA","refcode":"CAH"},{"latitude":49.05,"longitude":-66.41,"name":"Cap-Chat","country":"CA","refcode":"CAC"},{"latitude":47.38,"longitude":-59.18,"name":"Cape Ray","country":"CA","refcode":"CPY"},{"latitude":47.02,"longitude":-70.27,"name":"Cap-St-Ignace","country":"CA","refcode":"CSI"},{"latitude":49.52,"longitude":-99.21,"name":"Carberry","country":"CA","refcode":"CBY"},{"latitude":47.44,"longitude":-53.15,"name":"Carbonear","country":"CA","refcode":"CRB"},{"latitude":49.22,"longitude":-54.16,"name":"Carmanville","country":"CA","refcode":"CMV"},{"latitude":49.4,"longitude":-54.25,"name":"Change Islands","country":"CA","refcode":"CIL"},{"latitude":47.34,"longitude":-59.09,"name":"Channel-Port aux Basques","country":"CA","refcode":"PBQ"},{"latitude":46.14,"longitude":-63.08,"name":"Charlottetown","country":"CA","refcode":"CHA"},{"latitude":46.58,"longitude":-71.01,"name":"Chateau-Richer","country":"CA","refcode":"RRE"},{"latitude":51.02,"longitude":-113.49,"name":"Chestermere","country":"CA","refcode":"CTR"},{"latitude":46.37,"longitude":-61.01,"name":"Cheticamp","country":"CA","refcode":"CHT"},{"latitude":58.46,"longitude":-94.11,"name":"Churchill","country":"CA","refcode":"CHV"},{"latitude":48.09,"longitude":-53.58,"name":"Clarenville","country":"CA","refcode":"CLE"},{"latitude":43.27,"longitude":-65.38,"name":"Clark's Harbour","country":"CA","refcode":"CLH"},{"latitude":51.39,"longitude":-120.02,"name":"Clearwater","country":"CA","refcode":"CWT"},{"latitude":44.39,"longitude":-64,"name":"Cleveland","country":"CA","refcode":"CVA"},{"latitude":43.58,"longitude":-80.58,"name":"Clifford","country":"CA","refcode":"LLF"},{"latitude":50.36,"longitude":-127.35,"name":"Coal Harbour","country":"CA","refcode":"CAU"},{"latitude":43.58,"longitude":-78.1,"name":"Cobourg","country":"CA","refcode":"CBG"},{"latitude":47.35,"longitude":-53.16,"name":"Coley's Point","country":"CA","refcode":"CYP"},{"latitude":47.51,"longitude":-53.59,"name":"Come By Chance","country":"CA","refcode":"CBC"},{"latitude":46.29,"longitude":-80.51,"name":"Coniston","country":"CA","refcode":"CSJ"},{"latitude":48.57,"longitude":-57.56,"name":"Corner Brook","country":"CA","refcode":"CBK"},{"latitude":49.54,"longitude":-57.47,"name":"Cow Head","country":"CA","refcode":"CWH"},{"latitude":49.45,"longitude":-112.21,"name":"Cranford","country":"CA","refcode":"CRA"},{"latitude":49.08,"longitude":-98.57,"name":"Crystal City","country":"CA","refcode":"CCI"},{"latitude":49.05,"longitude":-123,"name":"Delta","country":"CA","refcode":"DEL"},{"latitude":49.33,"longitude":-124.48,"name":"Denman Island","country":"CA","refcode":"DSA"},{"latitude":47.33,"longitude":-53.33,"name":"Dildo","country":"CA","refcode":"DIL"},{"latitude":46.54,"longitude":-60.28,"name":"Dingwall","country":"CA","refcode":"DWL"},{"latitude":43.3,"longitude":-81.17,"name":"Dublin","country":"CA","refcode":"DLN"},{"latitude":45.29,"longitude":-71.4,"name":"East Angus","country":"CA","refcode":"ETA"},{"latitude":50.44,"longitude":-104.38,"name":"Emerald Park","country":"CA","refcode":"XVX"},{"latitude":54.05,"longitude":-125.01,"name":"Endako","country":"CA","refcode":"END"},{"latitude":49.16,"longitude":-123.1,"name":"English Bay","country":"CA","refcode":"EBY"},{"latitude":47.22,"longitude":-61.56,"name":"Etang-du-Nord","country":"CA","refcode":"ETN"},{"latitude":49.29,"longitude":-111.06,"name":"Etzikom","country":"CA","refcode":"ETZ"},{"latitude":44.49,"longitude":-63.37,"name":"Fall River","country":"CA","refcode":"FLR"},{"latitude":49.43,"longitude":-54.17,"name":"Fogo","country":"CA","refcode":"FOG"},{"latitude":43.06,"longitude":-82,"name":"Forest","country":"CA","refcode":"ZFT"},{"latitude":65.11,"longitude":-123.25,"name":"Fort Franklin","country":"CA","refcode":"FKN"},{"latitude":49.1,"longitude":-122.34,"name":"Fort Langley","country":"CA","refcode":"FLY"},{"latitude":57.11,"longitude":-111.38,"name":"Fort MacKay","country":"CA","refcode":"FMA"},{"latitude":48.24,"longitude":-89.14,"name":"Fort William","country":"CA","refcode":"FWL"},{"latitude":47.04,"longitude":-55.5,"name":"Fortune","country":"CA","refcode":"FOR"},{"latitude":50.58,"longitude":-119.12,"name":"Fraser Wharves","country":"CA","refcode":"FWS"},{"latitude":49.07,"longitude":-122.44,"name":"Fraser-Surrey Docks","country":"CA","refcode":"FSD"},{"latitude":45.57,"longitude":-66.39,"name":"Fredericton","country":"CA","refcode":"FRE"},{"latitude":43.21,"longitude":-80.18,"name":"Galt","country":"CA","refcode":"GLT"},{"latitude":48.57,"longitude":-54.33,"name":"Gander","country":"CA","refcode":"GAN"},{"latitude":48.5,"longitude":-64.29,"name":"Gaspe","country":"CA","refcode":"GPE"},{"latitude":46.12,"longitude":-59.58,"name":"Glace Bay","country":"CA","refcode":"GLB"},{"latitude":53.24,"longitude":-60.1,"name":"Goose Bay","country":"CA","refcode":"GOO"},{"latitude":47.06,"longitude":-55.47,"name":"Grand Bank","country":"CA","refcode":"GRB"},{"latitude":44.42,"longitude":-66.48,"name":"Grand Manan","country":"CA","refcode":"GMA"},{"latitude":46.17,"longitude":-64.33,"name":"Grande-Digue","country":"CA","refcode":"EDI"},{"latitude":44.34,"longitude":-63.56,"name":"Hacketts Cove","country":"CA","refcode":"HCC"},{"latitude":43.37,"longitude":-79.57,"name":"Halton Hills","country":"CA","refcode":"OON"},{"latitude":49.32,"longitude":-56.52,"name":"Hampden","country":"CA","refcode":"HMP"},{"latitude":44.08,"longitude":-81.01,"name":"Hanover","country":"CA","refcode":"HVR"},{"latitude":48.01,"longitude":-53.16,"name":"Hants Harbour","country":"CA","refcode":"HHB"},{"latitude":47.29,"longitude":-55.5,"name":"Harbour Breton","country":"CA","refcode":"HBR"},{"latitude":47.41,"longitude":-53.15,"name":"Harbour Grace","country":"CA","refcode":"HRE"},{"latitude":52.18,"longitude":-131.24,"name":"Harriet Harbour","country":"CA","refcode":"HAR"},{"latitude":44.08,"longitude":-78.11,"name":"Harwood","country":"CA","refcode":"HON"},{"latitude":48.23,"longitude":-71.41,"name":"Hebertville","country":"CA","refcode":"HEB"},{"latitude":58.12,"longitude":-62.38,"name":"Hebron","country":"CA","refcode":"HBN"},{"latitude":45.03,"longitude":-73.36,"name":"Hemmingford","country":"CA","refcode":"HMM"},{"latitude":69.34,"longitude":-139.04,"name":"Herschel Island","country":"CA","refcode":"HLI"},{"latitude":44.2,"longitude":-64.59,"name":"Hibernia","country":"CA","refcode":"HIB"},{"latitude":47.23,"longitude":-53.08,"name":"Holyrood","country":"CA","refcode":"HOD"},{"latitude":52.2,"longitude":-121.25,"name":"Horsefly","country":"CA","refcode":"HRF"},{"latitude":69.22,"longitude":-81.49,"name":"Igloolik","country":"CA","refcode":"IGL"},{"latitude":51.2,"longitude":-105.26,"name":"Imperial","country":"CA","refcode":"SIM"},{"latitude":49.22,"longitude":-122.52,"name":"Indian Arm","country":"CA","refcode":"IAM"},{"latitude":45.02,"longitude":-75.24,"name":"Inkerman","country":"CA","refcode":"IKM"},{"latitude":50.31,"longitude":-116.02,"name":"Invermere","country":"CA","refcode":"IVM"},{"latitude":63.44,"longitude":-68.3,"name":"Iqaluit","country":"CA","refcode":"IQL"},{"latitude":49.57,"longitude":-110.16,"name":"Irvine","country":"CA","refcode":"IVN"},{"latitude":53.52,"longitude":-94.4,"name":"Island Lake","country":"CA","refcode":"ISL"},{"latitude":49.52,"longitude":-56.48,"name":"Jackson Arm","country":"CA","refcode":"JAC"},{"latitude":45.49,"longitude":-66.06,"name":"Jemseg","country":"CA","refcode":"JEG"},{"latitude":49.54,"longitude":-116.55,"name":"Kaslo","country":"CA","refcode":"KLO"},{"latitude":45.53,"longitude":-80.44,"name":"Key Harbour","country":"CA","refcode":"KHO"},{"latitude":46.13,"longitude":-71.23,"name":"Kinnear's Mills","country":"CA","refcode":"KNE"},{"latitude":61.33,"longitude":-77.44,"name":"Kovik Bay","country":"CA","refcode":"KOV"},{"latitude":49.42,"longitude":-97.16,"name":"La Salle","country":"CA","refcode":"LMW"},{"latitude":54.46,"longitude":-111.57,"name":"Lac La Biche","country":"CA","refcode":"AAB"},{"latitude":45.43,"longitude":-70.51,"name":"Lac-Drolet","country":"CA","refcode":"LDT"},{"latitude":42.17,"longitude":-82.44,"name":"Lakeshore","country":"CA","refcode":"LSE"},{"latitude":52.13,"longitude":-87.53,"name":"Lansdowne","country":"CA","refcode":"LDS"},{"latitude":48.28,"longitude":-64.18,"name":"L'Anse-a-Beaufils","country":"CA","refcode":"LB3"},{"latitude":51.31,"longitude":-56.5,"name":"L'Anse-au-Loup","country":"CA","refcode":"ALO"},{"latitude":49.15,"longitude":-124.05,"name":"Lantzville","country":"CA","refcode":"LZV"},{"latitude":47.25,"longitude":-79.17,"name":"Laverlochere","country":"CA","refcode":"LVH"},{"latitude":49,"longitude":-66.58,"name":"Les Mechins","country":"CA","refcode":"MHN"},{"latitude":49.14,"longitude":-55.04,"name":"Lewisporte","country":"CA","refcode":"LWP"},{"latitude":45.18,"longitude":-74.02,"name":"L'Ile-des-Soeurs (Nuns Island)","country":"CA","refcode":"ILS"},{"latitude":43,"longitude":-81.25,"name":"Lobo","country":"CA","refcode":"LOB"},{"latitude":43.42,"longitude":-65.07,"name":"Lockeport","country":"CA","refcode":"LCP"},{"latitude":49.27,"longitude":-57.46,"name":"Lomond","country":"CA","refcode":"LMD"},{"latitude":47.26,"longitude":-53.48,"name":"Long Harbour","country":"CA","refcode":"LOH"},{"latitude":48,"longitude":-55.55,"name":"Long Pond","country":"CA","refcode":"LOP"},{"latitude":45.55,"longitude":-59.59,"name":"Louisbourg","country":"CA","refcode":"LOU"},{"latitude":42.52,"longitude":-79.27,"name":"Lowbanks","country":"CA","refcode":"LWB"},{"latitude":48.31,"longitude":-59,"name":"Lower Cove","country":"CA","refcode":"LCV"},{"latitude":46.35,"longitude":-41.44,"name":"Lower Sackville","country":"CA","refcode":"SKL"},{"latitude":43.31,"longitude":-65.44,"name":"Lower Woods Harbour","country":"CA","refcode":"LWH"},{"latitude":46.04,"longitude":-61.23,"name":"Mabou","country":"CA","refcode":"MAB"},{"latitude":45.16,"longitude":-72.09,"name":"Magog","country":"CA","refcode":"MAG"},{"latitude":51.11,"longitude":-56.01,"name":"Main Brook","country":"CA","refcode":"MBR"},{"latitude":48.08,"longitude":-78.07,"name":"Malartic","country":"CA","refcode":"MTI"},{"latitude":47.1,"longitude":-55.1,"name":"Marystown","country":"CA","refcode":"MTN"},{"latitude":44.36,"longitude":-80.36,"name":"Meaford","country":"CA","refcode":"MFD"},{"latitude":45.37,"longitude":-62.25,"name":"Merigomish","country":"CA","refcode":"MGH"},{"latitude":52.24,"longitude":-110.38,"name":"Metiskow","country":"CA","refcode":"MSW"},{"latitude":47.03,"longitude":-65.27,"name":"Millbank","country":"CA","refcode":"MLK"},{"latitude":71.53,"longitude":-80.55,"name":"Milne Inlet Port","country":"CA","refcode":"MNI"},{"latitude":45.44,"longitude":-82.1,"name":"Mindemoya","country":"CA","refcode":"MYO"},{"latitude":44.41,"longitude":-63.22,"name":"Minesville","country":"CA","refcode":"MSV"},{"latitude":46.05,"longitude":66.04,"name":"Minto","country":"CA","refcode":"MTO"},{"latitude":49.08,"longitude":-122.18,"name":"Mission","country":"CA","refcode":"MIB"},{"latitude":49.13,"longitude":-65.45,"name":"Mont-Louis","country":"CA","refcode":"MOL"},{"latitude":45.38,"longitude":-73.3,"name":"Montreal-Est","country":"CA","refcode":"MRE"},{"latitude":44.47,"longitude":-63.08,"name":"Musquodoboit Harbour","country":"CA","refcode":"MUS"},{"latitude":50.14,"longitude":-117.48,"name":"Nakusp","country":"CA","refcode":"NAK"},{"latitude":42.48,"longitude":-80.04,"name":"Nanticoke","country":"CA","refcode":"NAN"},{"latitude":49.36,"longitude":-119.35,"name":"Naramata","country":"CA","refcode":"NMT"},{"latitude":46.15,"longitude":-60.33,"name":"Neil's Harbour","country":"CA","refcode":"NS3"},{"latitude":49.29,"longitude":-117.18,"name":"Nelson","country":"CA","refcode":"NLS"},{"latitude":49.56,"longitude":-98.04,"name":"Newton","country":"CA","refcode":"EWT"},{"latitude":43.15,"longitude":-79.04,"name":"Niagara-on-the-Lake","country":"CA","refcode":"NOL"},{"latitude":47.33,"longitude":-53.4,"name":"Norman's Cove","country":"CA","refcode":"NCV"},{"latitude":49.53,"longitude":-121.28,"name":"North Bend","country":"CA","refcode":"NRB"},{"latitude":49.32,"longitude":-98.33,"name":"Notre-Dame-de-Lourdes","country":"CA","refcode":"NDL"},{"latitude":46,"longitude":-72.21,"name":"Notre-Dame-du-Bon-Conseil","country":"CA","refcode":"NBC"},{"latitude":49.55,"longitude":-98,"name":"Oakville","country":"CA","refcode":"OAJ"},{"latitude":44.16,"longitude":-76.43,"name":"Odessa","country":"CA","refcode":"ODE"},{"latitude":49.1,"longitude":-119.33,"name":"Oliver","country":"CA","refcode":"OVR"},{"latitude":45.27,"longitude":-75.32,"name":"Orleans","country":"CA","refcode":"OLS"},{"latitude":45.02,"longitude":-73.04,"name":"Philipsburg","country":"CA","refcode":"PHL"},{"latitude":44.2,"longitude":-64.26,"name":"Pleasantville","country":"CA","refcode":"PSV"},{"latitude":47.29,"longitude":-69.17,"name":"Pohenegamook","country":"CA","refcode":"PHM"},{"latitude":43,"longitude":-82.24,"name":"Point Edward","country":"CA","refcode":"PEW"},{"latitude":45.36,"longitude":-61.22,"name":"Point Tupper","country":"CA","refcode":"PTU"},{"latitude":50.09,"longitude":-66.29,"name":"Pointe Noire","country":"CA","refcode":"PNO"},{"latitude":45.39,"longitude":-73.29,"name":"Pointe-aux-Trembles","country":"CA","refcode":"PXT"},{"latitude":45.26,"longitude":-73.44,"name":"Pointe-Claire","country":"CA","refcode":"POI"},{"latitude":45.34,"longitude":-74.22,"name":"Pointe-Fortune","country":"CA","refcode":"PFT"},{"latitude":48.33,"longitude":-58.43,"name":"Port au Port","country":"CA","refcode":"PAP"},{"latitude":46.02,"longitude":-64.05,"name":"Port Elgin","country":"CA","refcode":"PEL"},{"latitude":43.13,"longitude":-79.13,"name":"Port Weller","country":"CA","refcode":"PWE"},{"latitude":48.2,"longitude":-70.53,"name":"Port-Alfred","country":"CA","refcode":"PAF"},{"latitude":50.01,"longitude":-66.52,"name":"Port-Cartier","country":"CA","refcode":"PCA"},{"latitude":48.11,"longitude":-64.59,"name":"Port-Daniel","country":"CA","refcode":"PDL"},{"latitude":48.1,"longitude":-64.55,"name":"Port-Daniel - Gascons","country":"CA","refcode":"GPD"},{"latitude":48.24,"longitude":-78.22,"name":"Preissac","country":"CA","refcode":"CQ5"},{"latitude":45.52,"longitude":-74.05,"name":"Prevost","country":"CA","refcode":"VOS"},{"latitude":44.28,"longitude":-63.47,"name":"Prospect","country":"CA","refcode":"PPT"},{"latitude":47.31,"longitude":-57.25,"name":"Ramea","country":"CA","refcode":"RAM"},{"latitude":62.49,"longitude":-92.04,"name":"Rankin Inlet","country":"CA","refcode":"RIT"},{"latitude":47.5,"longitude":-69.32,"name":"Riviere-du-Loup","country":"CA","refcode":"RDL"},{"latitude":49.04,"longitude":-123.1,"name":"Robert's Bank","country":"CA","refcode":"RTB"},{"latitude":46.08,"longitude":-71.13,"name":"Robertsonville","country":"CA","refcode":"RSV"},{"latitude":43.37,"longitude":-80.08,"name":"Rockwood","country":"CA","refcode":"RCD"},{"latitude":51.11,"longitude":-113.56,"name":"Rocky View County","country":"CA","refcode":"ABR"},{"latitude":50.51,"longitude":-56.07,"name":"Roddickton","country":"CA","refcode":"ROD"},{"latitude":48.5,"longitude":-87.31,"name":"Rossport","country":"CA","refcode":"RPO"},{"latitude":48.25,"longitude":-71.04,"name":"Saguenay","country":"CA","refcode":"SAG"},{"latitude":53.38,"longitude":-113.38,"name":"Saint Albert","country":"CA","refcode":"S8A"},{"latitude":45.01,"longitude":-73.02,"name":"Saint-Armand","country":"CA","refcode":"STD"},{"latitude":51.14,"longitude":-58.39,"name":"Saint-Augustin","country":"CA","refcode":"SAU"},{"latitude":48.28,"longitude":-71.4,"name":"Saint-Bruno-Lac-Saint-Jean","country":"CA","refcode":"BOJ"},{"latitude":43.1,"longitude":-79.14,"name":"Saint-Catharines","country":"CA","refcode":"SCA"},{"latitude":45.41,"longitude":-73.11,"name":"Saint-Charles-sur-Richelieu","country":"CA","refcode":"ZCR"},{"latitude":46.2,"longitude":-73.29,"name":"Saint-Damien-de-Brandon","country":"CA","refcode":"SDN"},{"latitude":45.24,"longitude":-73.35,"name":"Sainte-Catherine","country":"CA","refcode":"SCT"},{"latitude":46.58,"longitude":-70.58,"name":"Sainte-Famille","country":"CA","refcode":"SFI"},{"latitude":45.34,"longitude":-73.54,"name":"Saint-Eustache","country":"CA","refcode":"SEU"},{"latitude":45.48,"longitude":-72.11,"name":"Saint-Felix-de-Kingsey","country":"CA","refcode":"ST3"},{"latitude":46.1,"longitude":-73.24,"name":"Saint-Felix-de-Valois","country":"CA","refcode":"SFX"},{"latitude":46.04,"longitude":-72.5,"name":"Saint-Francois-du-Lac","country":"CA","refcode":"SFR"},{"latitude":48.29,"longitude":-71.47,"name":"Saint-Gedeon","country":"CA","refcode":"W4C"},{"latitude":45.16,"longitude":-71.31,"name":"Saint-Isidore d'Auckland","country":"CA","refcode":"XZC"},{"latitude":45.16,"longitude":-66.04,"name":"Saint-John","country":"CA","refcode":"SJB"},{"latitude":47.34,"longitude":-52.44,"name":"Saint-John's","country":"CA","refcode":"SJF"},{"latitude":46.18,"longitude":-70.52,"name":"Saint-Joseph-de-Beauce","country":"CA","refcode":"XJH"},{"latitude":45.29,"longitude":-73.3,"name":"Saint-Lambert","country":"CA","refcode":"SLT"},{"latitude":46.54,"longitude":-55.24,"name":"Saint-Lawrence","country":"CA","refcode":"SLW"},{"latitude":46.55,"longitude":-53.35,"name":"Saint-Marys","country":"CA","refcode":"SMS"},{"latitude":47.32,"longitude":-69.48,"name":"Saint-Pascal","country":"CA","refcode":"SPA"},{"latitude":45.27,"longitude":-73.38,"name":"Saint-Pierre","country":"CA","refcode":"SPI"},{"latitude":46.45,"longitude":-71.14,"name":"Saint-Romuald-d'Etchemin","country":"CA","refcode":"SRO"},{"latitude":46.38,"longitude":-53.36,"name":"Saint-Shotts","country":"CA","refcode":"SST"},{"latitude":46.44,"longitude":-72.34,"name":"Saint-Tite","country":"CA","refcode":"ZTI"},{"latitude":45.14,"longitude":-74.15,"name":"Saint-Zotique","country":"CA","refcode":"SZT"},{"latitude":48.49,"longitude":-64.25,"name":"Sandy Beach","country":"CA","refcode":"SBH"},{"latitude":49.4,"longitude":-97.26,"name":"Sanford","country":"CA","refcode":"SF2"},{"latitude":50.21,"longitude":-125.55,"name":"Sayward","country":"CA","refcode":"SYW"},{"latitude":52.46,"longitude":-111.41,"name":"Sedgewick","country":"CA","refcode":"SED"},{"latitude":49.36,"longitude":-54.1,"name":"Seldom","country":"CA","refcode":"SEM"},{"latitude":50.12,"longitude":-66.23,"name":"Sept-Iles","country":"CA","refcode":"SEI"},{"latitude":59.25,"longitude":-63.45,"name":"Seven Islands Bay","country":"CA","refcode":"SEB"},{"latitude":49.39,"longitude":-108.24,"name":"Shaunavon","country":"CA","refcode":"SNV"},{"latitude":44.56,"longitude":-62.32,"name":"Sheet Harbour","country":"CA","refcode":"SHH"},{"latitude":44.04,"longitude":-80.12,"name":"Shelburne","country":"CA","refcode":"SLB"},{"latitude":50.5,"longitude":-118.59,"name":"Sicamous","country":"CA","refcode":"SIO"},{"latitude":47.37,"longitude":-53.18,"name":"Spaniards Bay","country":"CA","refcode":"SPN"},{"latitude":56.15,"longitude":-96.06,"name":"Split Lake","country":"CA","refcode":"SLK"},{"latitude":49.29,"longitude":-56.06,"name":"Springdale","country":"CA","refcode":"SPD"},{"latitude":48.33,"longitude":-58.34,"name":"Stephenville","country":"CA","refcode":"STV"},{"latitude":43.28,"longitude":-65.34,"name":"Stoney Island","country":"CA","refcode":"SYI"},{"latitude":45.13,"longitude":-61.44,"name":"Stormont","country":"CA","refcode":"SMT"},{"latitude":52.19,"longitude":-114.05,"name":"Sylvan Lake","country":"CA","refcode":"SYL"},{"latitude":43.03,"longitude":-80.59,"name":"Thamesford","country":"CA","refcode":"THA"},{"latitude":49,"longitude":-123.04,"name":"Thawwassen","country":"CA","refcode":"TWN"},{"latitude":48.59,"longitude":-123.41,"name":"Thetis Island","country":"CA","refcode":"TTL"},{"latitude":51.42,"longitude":-113.16,"name":"Three Hills","country":"CA","refcode":"THH"},{"latitude":49.53,"longitude":-55.37,"name":"Tilt Cove","country":"CA","refcode":"TCV"},{"latitude":46.16,"longitude":-71,"name":"Tring Jonction","country":"CA","refcode":"TJN"},{"latitude":51.5,"longitude":-113.14,"name":"Trochu","country":"CA","refcode":"TRO"},{"latitude":49.39,"longitude":-54.45,"name":"Twillingate","country":"CA","refcode":"TWI"},{"latitude":48.56,"longitude":-125.31,"name":"Ucluelet","country":"CA","refcode":"UCL"},{"latitude":45.38,"longitude":-72.41,"name":"Upton","country":"CA","refcode":"UPT"},{"latitude":45.15,"longitude":-74.08,"name":"Valleyfield","country":"CA","refcode":"VLF"},{"latitude":45.46,"longitude":-73.21,"name":"Vercheres","country":"CA","refcode":"VCH"},{"latitude":48.26,"longitude":-123.21,"name":"Victoria","country":"CA","refcode":"VIC"},{"latitude":56.15,"longitude":-61.51,"name":"Voisey's Bay","country":"CA","refcode":"VOB"},{"latitude":45.13,"longitude":-64.01,"name":"Walton","country":"CA","refcode":"WTN"},{"latitude":49.2,"longitude":-123.09,"name":"West Vancouver","country":"CA","refcode":"WVR"},{"latitude":44.41,"longitude":-76.24,"name":"Westport","country":"CA","refcode":"WTO"},{"latitude":53.37,"longitude":-115.14,"name":"Wildwood","country":"CA","refcode":"WWO"},{"latitude":44.59,"longitude":-64.08,"name":"Windsor","country":"CA","refcode":"WDR"},{"latitude":46.17,"longitude":-72.5,"name":"Yamachiche","country":"CA","refcode":"ZYE"},{"latitude":6.01,"longitude":12.24,"name":"Banana","country":"CD","refcode":"BNW"},{"latitude":2.49,"longitude":24.43,"name":"Makala","country":"CD","refcode":"MKL"},{"latitude":5.3,"longitude":21.43,"name":"Togo","country":"CF","refcode":"TOG"},{"latitude":-1.13,"longitude":16.48,"name":"Mossaka","country":"CG","refcode":"MOS"},{"latitude":1,"longitude":15.54,"name":"Oyo","country":"CG","refcode":"OYO"},{"latitude":-2.56,"longitude":12.42,"name":"Yombo","country":"CG","refcode":"YOM"},{"latitude":47.16,"longitude":8.29,"name":"Aeugst am Albis","country":"CH","refcode":"XRE"},{"latitude":47,"longitude":9.3,"name":"Bad Ragaz","country":"CH","refcode":"BRZ"},{"latitude":47.09,"longitude":8.19,"name":"Ballwil","country":"CH","refcode":"BA8"},{"latitude":47.11,"longitude":7.34,"name":"Biberist","country":"CH","refcode":"BIB"},{"latitude":47.17,"longitude":8.12,"name":"Birrwil","country":"CH","refcode":"BIR"},{"latitude":46.28,"longitude":6.54,"name":"Blonay","country":"CH","refcode":"BLY"},{"latitude":46.36,"longitude":6.38,"name":"Bretigny-sur-Morrens","country":"CH","refcode":"BSM"},{"latitude":46.59,"longitude":8.36,"name":"Brunnen","country":"CH","refcode":"BRU"},{"latitude":47.28,"longitude":8.4,"name":"Brutten","country":"CH","refcode":"BTT"},{"latitude":46.26,"longitude":6.17,"name":"Bursinel","country":"CH","refcode":"BUR"},{"latitude":47.11,"longitude":8.28,"name":"Cham","country":"CH","refcode":"HHM"},{"latitude":47.23,"longitude":7,"name":"Chevenez","country":"CH","refcode":"CHE"},{"latitude":47.19,"longitude":7.23,"name":"Choindez","country":"CH","refcode":"N66"},{"latitude":46.15,"longitude":6.12,"name":"Collonge-Bellerive","country":"CH","refcode":"CBL"},{"latitude":46.19,"longitude":6.12,"name":"Coppet","country":"CH","refcode":"COP"},{"latitude":46.55,"longitude":6.38,"name":"Couvet","country":"CH","refcode":"CVT"},{"latitude":47.34,"longitude":8.15,"name":"Dottingen","country":"CH","refcode":"DOT"},{"latitude":46.29,"longitude":6.44,"name":"Epesses","country":"CH","refcode":"EPS"},{"latitude":47.18,"longitude":8.36,"name":"Erlenbach","country":"CH","refcode":"ERB"},{"latitude":47.17,"longitude":8.37,"name":"Feldmeilen","country":"CH","refcode":"FEM"},{"latitude":47.01,"longitude":9.31,"name":"Flasch","country":"CH","refcode":"FLA"},{"latitude":46.54,"longitude":6.46,"name":"Gorgier","country":"CH","refcode":"GRG"},{"latitude":47.36,"longitude":9.17,"name":"Guttingen","country":"CH","refcode":"GTT"},{"latitude":47.01,"longitude":6.58,"name":"Hauterive","country":"CH","refcode":"HTE"},{"latitude":47.17,"longitude":8.37,"name":"Herrliberg","country":"CH","refcode":"HBG"},{"latitude":47.01,"longitude":8.39,"name":"Ibach","country":"CH","refcode":"XZX"},{"latitude":47.35,"longitude":8.15,"name":"Klingnau","country":"CH","refcode":"RGU"},{"latitude":47.27,"longitude":8.47,"name":"Kollbrunn","country":"CH","refcode":"K3L"},{"latitude":47.08,"longitude":7.36,"name":"Koppigen","country":"CH","refcode":"KPP"},{"latitude":46.11,"longitude":6.08,"name":"Lancy","country":"CH","refcode":"GEL"},{"latitude":47.03,"longitude":7.04,"name":"Le Landeron","country":"CH","refcode":"LDO"},{"latitude":46.39,"longitude":6.16,"name":"Le Lieu","country":"CH","refcode":"LLU"},{"latitude":47.2,"longitude":8.4,"name":"Maur","country":"CH","refcode":"MAU"},{"latitude":47.17,"longitude":8.38,"name":"Meilen","country":"CH","refcode":"MLN"},{"latitude":47.17,"longitude":8.14,"name":"Meisterschwanden","country":"CH","refcode":"MWA"},{"latitude":46.19,"longitude":7.33,"name":"Miege","country":"CH","refcode":"MIG"},{"latitude":47.06,"longitude":9.04,"name":"Nafels","country":"CH","refcode":"NEF"},{"latitude":47.16,"longitude":7.41,"name":"Niederbipp","country":"CH","refcode":"NDB"},{"latitude":46.44,"longitude":7.57,"name":"Oberried am Brienzersee","country":"CH","refcode":"ODB"},{"latitude":46.08,"longitude":8.44,"name":"Porto Ronco","country":"CH","refcode":"POR"},{"latitude":46.18,"longitude":7.48,"name":"Raron","country":"CH","refcode":"RRN"},{"latitude":46.37,"longitude":7.41,"name":"Reichenbach","country":"CH","refcode":"RNB"},{"latitude":47.34,"longitude":9.23,"name":"Romanshorn","country":"CH","refcode":"RMH"},{"latitude":46.29,"longitude":7.13,"name":"Rougemont","country":"CH","refcode":"RGT"},{"latitude":46.53,"longitude":6.46,"name":"Saint-Aubin-Sauges","country":"CH","refcode":"SAS"},{"latitude":46.31,"longitude":6.34,"name":"Saint-Sulpice","country":"CH","refcode":"SSV"},{"latitude":47.4,"longitude":9.03,"name":"Salenstein","country":"CH","refcode":"TTG"},{"latitude":47.1,"longitude":8.08,"name":"Schenkon","country":"CH","refcode":"SEN"},{"latitude":47.14,"longitude":8.56,"name":"Schmerikon","country":"CH","refcode":"SMK"},{"latitude":46.58,"longitude":8.2,"name":"Stansstad","country":"CH","refcode":"STA"},{"latitude":47.12,"longitude":8.28,"name":"Steinhausen","country":"CH","refcode":"STI"},{"latitude":47.06,"longitude":7.09,"name":"Twann","country":"CH","refcode":"TAN"},{"latitude":47.16,"longitude":8.4,"name":"Uetikon am See","country":"CH","refcode":"UKS"},{"latitude":47.08,"longitude":7.33,"name":"Utzenstorf","country":"CH","refcode":"TZE"},{"latitude":46.17,"longitude":6.1,"name":"Versoix","country":"CH","refcode":"VSX"},{"latitude":46.43,"longitude":6.58,"name":"Villaz-Saint-Pierre","country":"CH","refcode":"VS5"},{"latitude":47.01,"longitude":8.29,"name":"Vitznau","country":"CH","refcode":"VZU"},{"latitude":47.06,"longitude":8.31,"name":"Walchwil","country":"CH","refcode":"WCW"},{"latitude":47.27,"longitude":8.22,"name":"Wurenlos","country":"CH","refcode":"WLO"},{"latitude":5.07,"longitude":-3.17,"name":"Assinie-Mafia","country":"CI","refcode":"ASS"},{"latitude":4.57,"longitude":-4.33,"name":"Baobab Terminal","country":"CI","refcode":"BAO"},{"latitude":5.19,"longitude":-4.22,"name":"Dabou","country":"CI","refcode":"DAB"},{"latitude":5.05,"longitude":-5.34,"name":"Fresco","country":"CI","refcode":"FRE"},{"latitude":5.28,"longitude":-5.35,"name":"Gbabam","country":"CI","refcode":"GBA"},{"latitude":5.08,"longitude":-5.01,"name":"Grand Lahou","country":"CI","refcode":"GLU"},{"latitude":5.12,"longitude":-4.25,"name":"Jacqueville","country":"CI","refcode":"JAC"},{"latitude":8.13,"longitude":-8.06,"name":"Kosagi","country":"CI","refcode":"KOS"},{"latitude":5.15,"longitude":-3.58,"name":"Port-Bouet","country":"CI","refcode":"PBT"},{"latitude":-26.21,"longitude":-70.38,"name":"Barquito","country":"CL","refcode":"BAR"},{"latitude":-41.45,"longitude":-73.08,"name":"Calbuco","country":"CL","refcode":"CBC"},{"latitude":-23.45,"longitude":-70.28,"name":"Caleta Coloso","country":"CL","refcode":"COL"},{"latitude":-29.27,"longitude":-71.18,"name":"Cruz Grande","country":"CL","refcode":"CGR"},{"latitude":-42.23,"longitude":-73.4,"name":"Dalcahue","country":"CL","refcode":"DCH"},{"latitude":-37.36,"longitude":-73.39,"name":"Lebu","country":"CL","refcode":"LEB"},{"latitude":-41.15,"longitude":-73,"name":"Llanquihue","country":"CL","refcode":"LIA"},{"latitude":-24.41,"longitude":-69.46,"name":"Los Vientos","country":"CL","refcode":"LVT"},{"latitude":-31.54,"longitude":-71.3,"name":"Los Vilos","country":"CL","refcode":"LOS"},{"latitude":-36.39,"longitude":-72.27,"name":"Nueva Aldea","country":"CL","refcode":"NAL"},{"latitude":-52.57,"longitude":-71.11,"name":"Pecket","country":"CL","refcode":"PCK"},{"latitude":-19.36,"longitude":-70.12,"name":"Pisagua","country":"CL","refcode":"PIS"},{"latitude":-23.05,"longitude":-70.27,"name":"Puerto Angamos","country":"CL","refcode":"PAG"},{"latitude":-45.29,"longitude":-72.5,"name":"Puerto Chacabuco","country":"CL","refcode":"PCH"},{"latitude":-49.09,"longitude":-74.27,"name":"Puerto Eden","country":"CL","refcode":"EDE"},{"latitude":-20.48,"longitude":-70.12,"name":"Puerto Patache","country":"CL","refcode":"PAT"},{"latitude":-31.52,"longitude":-71.3,"name":"Punta Chungo","country":"CL","refcode":"PTC"},{"latitude":-43.06,"longitude":-73.37,"name":"Quellon (Puerto Quellon)","country":"CL","refcode":"PTE"},{"latitude":-43.08,"longitude":-73.4,"name":"Quellon Viejo","country":"CL","refcode":"QUV"},{"latitude":-32.44,"longitude":-71.29,"name":"Ventanas","country":"CL","refcode":"VNT"},{"latitude":4.38,"longitude":9.26,"name":"Kumba","country":"CM","refcode":"KUM"},{"latitude":4.01,"longitude":9.13,"name":"Limbe","country":"CM","refcode":"LIM"},{"latitude":4.07,"longitude":8.29,"name":"Moudi Terminal","country":"CM","refcode":"MOU"},{"latitude":21.23,"longitude":109.5,"name":"Anpu","country":"CN","refcode":"APP"},{"latitude":30.31,"longitude":117.02,"name":"Anqing Pt","country":"CN","refcode":"AQG"},{"latitude":36.25,"longitude":119.11,"name":"Anqiu","country":"CN","refcode":"ANQ"},{"latitude":31.18,"longitude":121.09,"name":"Anting","country":"CN","refcode":"ANT"},{"latitude":27.35,"longitude":120.27,"name":"Aojiang Pt","country":"CN","refcode":"AJG"},{"latitude":25.28,"longitude":105.47,"name":"Bacao","country":"CN","refcode":"BCO"},{"latitude":31.02,"longitude":110.23,"name":"Badong","country":"CN","refcode":"BDG"},{"latitude":25.26,"longitude":105.48,"name":"Baiceng","country":"CN","refcode":"BCG"},{"latitude":19.42,"longitude":109.13,"name":"Baimajing","country":"CN","refcode":"BMJ"},{"latitude":35.01,"longitude":118.36,"name":"Baimao","country":"CN","refcode":"IMA"},{"latitude":30.26,"longitude":111.31,"name":"Baiyang","country":"CN","refcode":"BYG"},{"latitude":31.25,"longitude":121.29,"name":"Baoshan Pt","country":"CN","refcode":"BSD"},{"latitude":19,"longitude":108.37,"name":"Basuo Pt","country":"CN","refcode":"BSP"},{"latitude":46.05,"longitude":127.24,"name":"Bayan","country":"CN","refcode":"BYA"},{"latitude":21.28,"longitude":109.07,"name":"Beihai Pt","country":"CN","refcode":"BIH"},{"latitude":22.55,"longitude":113.12,"name":"Beijiao","country":"CN","refcode":"BIJ"},{"latitude":21.22,"longitude":110.15,"name":"Beitan","country":"CN","refcode":"SXB"},{"latitude":22.37,"longitude":114.51,"name":"Bijia","country":"CN","refcode":"PHB"},{"latitude":33.43,"longitude":119.37,"name":"Binhai","country":"CN","refcode":"BHX"},{"latitude":27.15,"longitude":120.2,"name":"Binyang","country":"CN","refcode":"BYN"},{"latitude":21.31,"longitude":111,"name":"Bohe","country":"CN","refcode":"DBX"},{"latitude":38.27,"longitude":118.26,"name":"Bozhong","country":"CN","refcode":"BZG"},{"latitude":34.51,"longitude":118.03,"name":"Cangshan","country":"CN","refcode":"GSA"},{"latitude":23.29,"longitude":111.19,"name":"Cangwu","country":"CN","refcode":"CGW"},{"latitude":38.57,"longitude":118.32,"name":"Caofeidian Pt","country":"CN","refcode":"CFD"},{"latitude":30.47,"longitude":121.24,"name":"Caojing","country":"CN","refcode":"CJG"},{"latitude":40.25,"longitude":124.48,"name":"Changdianhekou","country":"CN","refcode":"CDH"},{"latitude":28.12,"longitude":112.59,"name":"Changsha","country":"CN","refcode":"CSH"},{"latitude":31.39,"longitude":120.43,"name":"Changshu Pt","country":"CN","refcode":"CGS"},{"latitude":31.47,"longitude":119.58,"name":"Changzhou Pt","country":"CN","refcode":"CZX"},{"latitude":31.36,"longitude":117.51,"name":"Chaohu","country":"CN","refcode":"CHU"},{"latitude":23.16,"longitude":116.36,"name":"Chaoyang Pt","country":"CN","refcode":"CHY"},{"latitude":23.4,"longitude":116.38,"name":"Chaozhou Pt","country":"CN","refcode":"COZ"},{"latitude":22.57,"longitude":113.14,"name":"Chencun","country":"CN","refcode":"CUN"},{"latitude":40.58,"longitude":117.56,"name":"Chengde","country":"CN","refcode":"CNG"},{"latitude":29.26,"longitude":113.09,"name":"Chenglingji Pt","country":"CN","refcode":"CLJ"},{"latitude":31.55,"longitude":120.14,"name":"Chengxi","country":"CN","refcode":"CHX"},{"latitude":22.29,"longitude":113.53,"name":"Chiwan Pt","country":"CN","refcode":"CWN"},{"latitude":30.39,"longitude":117.28,"name":"Chizhou Pt","country":"CN","refcode":"CHI"},{"latitude":31.38,"longitude":121.24,"name":"Chongming","country":"CN","refcode":"CGM"},{"latitude":29.35,"longitude":106.33,"name":"Chongqing","country":"CN","refcode":"CQI"},{"latitude":32.19,"longitude":118.17,"name":"Chuzhou","country":"CN","refcode":"CHZ"},{"latitude":30.1,"longitude":121.14,"name":"Cixi","country":"CN","refcode":"CIX"},{"latitude":22.32,"longitude":113.52,"name":"DA CHAN BAY","country":"CN","refcode":"DCB"},{"latitude":43.57,"longitude":129.51,"name":"Daan","country":"CN","refcode":"DAN"},{"latitude":24.32,"longitude":118.19,"name":"Dadeng I.","country":"CN","refcode":"DDD"},{"latitude":33.11,"longitude":120.28,"name":"Dafeng Pt","country":"CN","refcode":"DFG"},{"latitude":38.55,"longitude":121.36,"name":"Dalian","country":"CN","refcode":"DAL"},{"latitude":39.44,"longitude":123.43,"name":"Dalu Island","country":"CN","refcode":"DLD"},{"latitude":25.11,"longitude":119.36,"name":"Damaiyu","country":"CN","refcode":"DMY"},{"latitude":40.08,"longitude":124.22,"name":"Dandong","country":"CN","refcode":"DDZ"},{"latitude":25.22,"longitude":109.26,"name":"Danzhou","country":"CN","refcode":"DHU"},{"latitude":22.36,"longitude":114.3,"name":"Dapeng","country":"CN","refcode":"DPG"},{"latitude":38.54,"longitude":121.36,"name":"Dashihuagang","country":"CN","refcode":"DAS"},{"latitude":29.53,"longitude":121.57,"name":"Daxie Pt","country":"CN","refcode":"DAX"},{"latitude":22.4,"longitude":114.4,"name":"Dayawan","country":"CN","refcode":"DAY"},{"latitude":26.13,"longitude":109.07,"name":"Defeng","country":"CN","refcode":"DEF"},{"latitude":37.26,"longitude":116.17,"name":"Dezhou","country":"CN","refcode":"DEZ"},{"latitude":26.14,"longitude":119.37,"name":"Dongdaiwan","country":"CN","refcode":"DDW"},{"latitude":19.03,"longitude":108.56,"name":"Dongfang","country":"CN","refcode":"DFA"},{"latitude":39.53,"longitude":124.08,"name":"Donggang","country":"CN","refcode":"DGN"},{"latitude":23.02,"longitude":113.45,"name":"Dongguan Pt","country":"CN","refcode":"DGG"},{"latitude":22.57,"longitude":115.38,"name":"Donghai","country":"CN","refcode":"DNG"},{"latitude":33.4,"longitude":108.4,"name":"Dongjiangkou","country":"CN","refcode":"DJK"},{"latitude":20.2,"longitude":110.25,"name":"Dongjiaotou Pt","country":"CN","refcode":"DJT"},{"latitude":21.43,"longitude":112.13,"name":"Dongping","country":"CN","refcode":"DGP"},{"latitude":24.4,"longitude":118.28,"name":"Dongshi","country":"CN","refcode":"DSH"},{"latitude":21.29,"longitude":107.59,"name":"Dongxing","country":"CN","refcode":"DOX"},{"latitude":37.25,"longitude":118.41,"name":"Dongying Pt","country":"CN","refcode":"DYN"},{"latitude":22.12,"longitude":113.17,"name":"Doumen Pt","country":"CN","refcode":"DOU"},{"latitude":30.24,"longitude":114.49,"name":"Ezhou","country":"CN","refcode":"EZH"},{"latitude":21.46,"longitude":108.21,"name":"Fangcheng Pt","country":"CN","refcode":"FAN"},{"latitude":36.42,"longitude":121.14,"name":"Fengcheng","country":"CN","refcode":"FCH"},{"latitude":23.03,"longitude":112.27,"name":"Fengkai","country":"CN","refcode":"FKI"},{"latitude":47.15,"longitude":132.02,"name":"Fujin","country":"CN","refcode":"FUJ"},{"latitude":29.42,"longitude":107.2,"name":"Fuling","country":"CN","refcode":"FLG"},{"latitude":22.39,"longitude":113.47,"name":"Fuyong","country":"CN","refcode":"FNG"},{"latitude":48.21,"longitude":134.18,"name":"Fuyuan","country":"CN","refcode":"FUY"},{"latitude":26.05,"longitude":119.18,"name":"Fuzhou","country":"CN","refcode":"FZH"},{"latitude":32.18,"longitude":119.51,"name":"Gaogang","country":"CN","refcode":"GAO"},{"latitude":21.55,"longitude":113.15,"name":"Gaolan","country":"CN","refcode":"GON"},{"latitude":36.19,"longitude":103.56,"name":"Gaolan","country":"CN","refcode":"GLN"},{"latitude":22.53,"longitude":112.5,"name":"Gaoming Pt","country":"CN","refcode":"GOM"},{"latitude":23.38,"longitude":117.14,"name":"Gongkou","country":"CN","refcode":"GGK"},{"latitude":22.47,"longitude":113.52,"name":"Gongming","country":"CN","refcode":"GOG"},{"latitude":22.15,"longitude":112.48,"name":"Gongyi","country":"CN","refcode":"TSG"},{"latitude":21.58,"longitude":112.48,"name":"Guanghai Pt","country":"CN","refcode":"GHI"},{"latitude":23.08,"longitude":113.14,"name":"Guangzhou","country":"CN","refcode":"GGZ"},{"latitude":23.06,"longitude":109.36,"name":"Guigang","country":"CN","refcode":"GUG"},{"latitude":25.16,"longitude":110.17,"name":"Guilin","country":"CN","refcode":"GUI"},{"latitude":22.08,"longitude":113.49,"name":"Guishan","country":"CN","refcode":"GIS"},{"latitude":22.36,"longitude":113.1,"name":"Guzhen","country":"CN","refcode":"GZE"},{"latitude":20.02,"longitude":110.2,"name":"Haikou","country":"CN","refcode":"HKO"},{"latitude":20.15,"longitude":108.5,"name":"Haikou New Pt","country":"CN","refcode":"HXG"},{"latitude":20.02,"longitude":110.1,"name":"Haikou Pt","country":"CN","refcode":"HIG"},{"latitude":28.4,"longitude":121.26,"name":"Haimen","country":"CN","refcode":"HME"},{"latitude":45.44,"longitude":126.36,"name":"Harbin","country":"CN","refcode":"HRN"},{"latitude":39.53,"longitude":115.16,"name":"Hebei","country":"CN","refcode":"HEB"},{"latitude":50.14,"longitude":127.29,"name":"Heihe","country":"CN","refcode":"HEK"},{"latitude":50.12,"longitude":119.23,"name":"Heishantou","country":"CN","refcode":"HST"},{"latitude":22.12,"longitude":112.19,"name":"Hengban","country":"CN","refcode":"ENP"},{"latitude":23.1,"longitude":114.37,"name":"Hengli","country":"CN","refcode":"HNI"},{"latitude":22.46,"longitude":112.57,"name":"Heshan Pt","country":"CN","refcode":"HSN"},{"latitude":22.39,"longitude":113.08,"name":"Hetang","country":"CN","refcode":"HTG"},{"latitude":23.1,"longitude":114.16,"name":"Honghai Pt","country":"CN","refcode":"BLX"},{"latitude":22.56,"longitude":113.38,"name":"Houjie","country":"CN","refcode":"HOU"},{"latitude":24.53,"longitude":118.4,"name":"Houzhu","country":"CN","refcode":"HZU"},{"latitude":47.01,"longitude":130.42,"name":"Huachuan","country":"CN","refcode":"HCN"},{"latitude":23.03,"longitude":112.27,"name":"Huaiji","country":"CN","refcode":"HIJ"},{"latitude":40.22,"longitude":115.3,"name":"Huailai","country":"CN","refcode":"HLI"},